stop_id,stop_name,stop_lat,stop_lon,location_type,stop_code,zone_id
14724,Grand River / Fifteenth (EB),42.3476023,-83.0869174,0,14724,standard
14725,Hancock / Grand River (EB),42.3480266,-83.0869925,0,14725,standard
14726,Grand River / Hancock NS (WB),42.3478878,-83.0869603,0,14726,standard
14727,Second / Martin Luther King Jr (NB),42.3451581,-83.0629599,0,14727,standard
14728,Second / Selden (SB),42.34719,-83.0644405,0,14728,standard
14729,Second / Selden (NB),42.3476341,-83.0643654,0,14729,standard
14730,Second / Alexandrine (SB),42.3485677,-83.0652022,0,14730,standard
14731,Second / Alexandrine (NB),42.3489463,-83.0651298,0,14731,standard
14732,Second / Canfield (SB),42.350774,-83.066479,0,14732,standard
14733,Canfield / Second (EB),42.3510555,-83.0661517,0,14733,standard
14734,Second / Canfield (NB),42.3513409,-83.0665058,0,14734,standard
14735,Warren / Second (EB),42.3552141,-83.0685335,0,14735,standard
14736,Warren / Second (WB),42.3553687,-83.0692631,0,14736,standard
14737,Second / Warren (SB),42.3550238,-83.0688822,0,14737,standard
14738,Schoenherr / Hall Road (NB),42.6278294,-82.9928577,0,14738,standard
14739,Schoenherr / Twenty-One Mile (SB),42.6409477,-82.9936677,0,14739,standard
14740,Schoenherr / Twenty-One Mile (NB),42.6415554,-82.9933834,0,14740,standard
14741,Schoenherr / Twenty-Two Mile (SB),42.6554086,-82.9942685,0,14741,standard
14742,Schoenherr / Twenty-Two Mile (NB),42.656028,-82.9939789,0,14742,standard
14743,Schoenherr / Twenty-Three Mile (SB),42.6700161,-82.994805,0,14743,standard
14744,Van Dyke / Twenty-Three Mile (NB),42.6699214,-83.0337024,0,14744,standard
14745,Van Dyke / Twenty-Four Mile (SB),42.6839103,-83.0345714,0,14745,standard
14746,Liberty / Division (WB),42.2795156,-83.7442464,0,14746,standard
14747,Mack / Chrysler NS (EB),42.3507244,-83.0489963,0,14747,standard
14748,Canfield / Cass (WB),42.351773,-83.0645183,0,14748,standard
14749,Second / Forest (NB),42.3532062,-83.0675679,0,14749,standard
14750,Second / Forest (SB),42.3528434,-83.0676457,0,14750,standard
14751,Oakland CC Quakertown Circle,42.4925148,-83.3728999,0,14751,orchardridge
14752,Oakland CC Farmington Circle,42.4930349,-83.3684313,0,14752,orchardridge
14753,Macomb Community College Park & Ride,42.507894,-82.9773854,0,14753,standard
14412,Vreeland / Telegraph (WB),42.1091158,-83.2857764,0,14412,standard
14394,Flat Rock Meijer,42.1095496,-83.2882816,0,14394,standard
14396,Telegraph / Moses (SB),42.0992812,-83.2919133,0,14396,standard
14395,Telegraph / Leonard (SB),42.1051559,-83.2880616,0,14395,standard
14411,Telegraph / Leonard (NB),42.105522,-83.2874876,0,14411,standard
14410,Telegraph / Moses (NB),42.0994086,-83.2914627,0,14410,standard
14397,Gibraltar / Division (EB),42.0949465,-83.2897836,0,14397,standard
14409,Gibraltar / Division (WB),42.0952888,-83.2899284,0,14409,standard
14398,Gibraltar / Sheeks (EB),42.0943494,-83.2853794,0,14398,standard
14408,Gibraltar / Sheeks (WB),42.0945245,-83.2858837,0,14408,standard
14407,Gibraltar / Evergreen (WB),42.0945723,-83.2825255,0,14407,standard
14399,Gibraltar / Evergreen (EB),42.0943932,-83.2819998,0,14399,standard
14406,Gibraltar / Aspen (WB),42.0946201,-83.2776225,0,14406,standard
14400,Gibraltar / Aspen (EB),42.0944608,-83.2769144,0,14400,standard
14405,Gibraltar / Baker (WB),42.0947395,-83.2707667,0,14405,standard
14401,Gibraltar / Baker NS (EB),42.0945325,-83.2714212,0,14401,standard
14402,Gibraltar / Cambridge (EB),42.0946957,-83.2604778,0,14402,standard
14404,Gibraltar / New Hall (WB),42.0949186,-83.2603598,0,14404,standard
14403,Eureka / Pardee (EB),42.1976777,-83.2576454,0,14403,standard
14075,Southland Mall Park & Ride,42.1989315,-83.2515299,0,14075,standard
13971,Eight Mile / Grand River NS (WB),42.4422474,-83.3190733,0,13971,standard
14273,Tienken / Pine (EB),42.6955383,-83.1376326,0,14273,standard
14272,Tienken / Winry (EB),42.6954634,-83.1418437,0,14272,standard
14271,Tienken / Oakbrook (EB),42.6953885,-83.1444722,0,14271,standard
14270,Tienken / Paint Creek Trail (EB),42.6953057,-83.1476587,0,14270,standard
14269,Tienken / Canyon Creek NS (EB),42.6952505,-83.1503087,0,14269,standard
14268,Tienken / Livernois (EB),42.6950888,-83.1532377,0,14268,standard
14267,Tienken / Walnut Grove (EB),42.695073,-83.1577063,0,14267,standard
14266,Tienken / Allston (EB),42.6949863,-83.1611127,0,14266,standard
14265,Tienken / Bridgestone NS (EB),42.6949035,-83.1643581,0,14265,standard
14264,Tienken / Ironstone (EB),42.6948128,-83.1679845,0,14264,standard
14263,Tienken / Augusta (EB),42.6945842,-83.1754839,0,14263,standard
14262,Tienken / Langley (EB),42.6944895,-83.1794375,0,14262,standard
14261,Tienken / Brewster (EB),42.6943988,-83.183654,0,14261,standard
14260,Tienken / Telluride NS (EB),42.6942372,-83.1901717,0,14260,standard
14259,Tienken / Adams (EB),42.6941504,-83.1942004,0,14259,standard
14258,Adams / Mohawk (SB),42.6964885,-83.1948549,0,14258,standard
14257,Adams / Potomac (SB),42.6999973,-83.1949997,0,14257,standard
14256,Adams / Charlwood (SB),42.7012036,-83.1950694,0,14256,standard
14255,Adams / Kilburn (SB),42.7036084,-83.1951928,0,14255,standard
14254,Adams / Burlington (SB),42.7046531,-83.1952679,0,14254,standard
14253,Adams / Saratoga (SB),42.7072587,-83.1953806,0,14253,standard
14252,Adams / Dutton (SB),42.7097776,-83.1955361,0,14252,standard
14251,Dutton / Wales (EB),42.7097579,-83.2035667,0,14251,standard
14250,Dutton / Independence (EB),42.7096514,-83.2073379,0,14250,standard
14249,Dutton / Oakpointe (EB),42.7095647,-83.2106692,0,14249,standard
14248,Dutton / Durand (EB),42.7094544,-83.2143599,0,14248,standard
14247,Dutton / Thornhill (EB),42.709344,-83.2190216,0,14247,standard
14246,Dutton / Squirrel (EB),42.7093006,-83.2213336,0,14246,standard
14245,Dutton / Rochester Soccer Club (EB),42.7090878,-83.2273847,0,14245,standard
14244,Dutton / Bald Mountain NS (EB),42.7089183,-83.2330763,0,14244,standard
14243,Dutton / Interpark (EB),42.7085477,-83.2400662,0,14243,standard
14242,Dutton / Lapeer (EB),42.708599,-83.2419974,0,14242,standard
14241,Brown / Bluebird Hill (EB),42.7084177,-83.2497597,0,14241,standard
14309,Brown / Purks (WB),42.7084807,-83.258847,0,14309,standard
14239,Brown / Purks (EB),42.7082758,-83.2583803,0,14239,standard
14240,Brown / Glenmeade (EB),42.7083743,-83.2541853,0,14240,standard
14238,Brown / Giddings (EB),42.7081575,-83.2621032,0,14238,standard
14237,Giddings / 4300 (NB),42.7049606,-83.2621998,0,14237,standard
14236,Giddings / Summit (NB),42.7032497,-83.2620603,0,14236,standard
14235,Giddings / Harmon (NB),42.7003442,-83.2619369,0,14235,standard
14234,Harmon / Mino Automation (EB),42.6998396,-83.2656759,0,14234,standard
14233,Harmon / Atlantic (EB),42.6997371,-83.2694364,0,14233,standard
14232,Harmon / FEV Development Center (EB),42.699674,-83.2737708,0,14232,standard
14231,Harmon / Continental (EB),42.6996425,-83.2769197,0,14231,standard
14230,Harmon / Joslyn (EB),42.7033285,-83.2844245,0,14230,standard
14318,Harmon / Joslyn NS (WB),42.7034547,-83.2838237,0,14318,standard
14317,Harmon / Continental (WB),42.6998081,-83.2773811,0,14317,standard
14316,Harmon / Shape Process Automation (WB),42.6998199,-83.2735241,0,14316,standard
14315,Harmon / Atlantic (WB),42.699883,-83.2702035,0,14315,standard
14314,Harmon / Tectonics (WB),42.7000288,-83.265692,0,14314,standard
14313,Harmon / Giddings (WB),42.7001077,-83.2623983,0,14313,standard
14312,Giddings / Summit (SB),42.7027175,-83.2623124,0,14312,standard
14311,Giddings / SL America (SB),42.7046097,-83.2624412,0,14311,standard
14310,Giddings / Brown (SB),42.7080314,-83.2626557,0,14310,standard
14308,Brown / Glenmeade (WB),42.7086148,-83.2546413,0,14308,standard
14307,Brown / Bluebird Hill (WB),42.7086542,-83.2503176,0,14307,standard
14306,Brown / Lapeer (WB),42.7088355,-83.243081,0,14306,standard
14305,Dutton / Interpark (WB),42.7088749,-83.2406026,0,14305,standard
14304,Dutton / Bald Mountain (WB),42.7091035,-83.2329261,0,14304,standard
14303,Dutton / Rochester Soccer Club (WB),42.7092612,-83.2279158,0,14303,standard
14302,Dutton / Squirrel (WB),42.709482,-83.2219613,0,14302,standard
14301,Dutton / Middlebury (WB),42.7095174,-83.2192522,0,14301,standard
14300,Dutton / Ventura (WB),42.7096002,-83.21495,0,14300,standard
14299,Dutton / Rolling Hills (WB),42.709679,-83.2109642,0,14299,standard
14298,Dutton / Independence (WB),42.7097776,-83.2077295,0,14298,standard
14297,Dutton / Kingspointe (WB),42.7098998,-83.2035667,0,14297,standard
14296,Dutton / Adams (WB),42.710085,-83.1957024,0,14296,standard
14295,Adams / Saratoga (NB),42.7076372,-83.1951553,0,14295,standard
14294,Adams / Burlington (NB),42.7050946,-83.1950158,0,14294,standard
14292,Adams / Charlwood (NB),42.7016728,-83.1948495,0,14292,standard
14293,Adams / Kilburn (NB),42.7038883,-83.1949461,0,14293,standard
14291,Adams / Potomac (NB),42.7002417,-83.1947744,0,14291,standard
14290,Adams / Mohawk (NB),42.6968472,-83.1946135,0,14290,standard
14289,Adams / Tienken (NB),42.6945053,-83.1945276,0,14289,standard
14288,Tienken / Potomac NS (WB),42.6944383,-83.1901288,0,14288,standard
14287,Tienken / Brewster (WB),42.6945487,-83.1845069,0,14287,standard
14286,Tienken / Clopton Bridge (WB),42.6947103,-83.1792417,0,14286,standard
14285,Tienken / Grandview (WB),42.6947734,-83.1762511,0,14285,standard
14284,Tienken / Barneswood (WB),42.69501,-83.1676787,0,14284,standard
14283,Tienken / Bridgestone (WB),42.6950888,-83.1644386,0,14283,standard
14282,Tienken / Allston (WB),42.6951677,-83.1615901,0,14282,standard
14281,Tienken / Walnut Grove (WB),42.6952229,-83.1583124,0,14281,standard
14280,Tienken / Livernois (WB),42.6953293,-83.1550241,0,14280,standard
14279,Tienken / Canyon Creek (WB),42.6954121,-83.1508613,0,14279,standard
14278,Tienken / Paint Creek Trail (WB),42.6954673,-83.1477767,0,14278,standard
14277,Tienken / Cliffview (WB),42.6955265,-83.1449926,0,14277,standard
14276,Tienken / Bedford Square (WB),42.6956171,-83.141849,0,14276,standard
14275,Tienken / Tienken Ct (WB),42.6956881,-83.1385338,0,14275,standard
14274,Tienken / Rochester (WB),42.6957906,-83.1351382,0,14274,standard
14229,Rochester Hills Public Library (EB),42.6834528,-83.1309325,0,14229,standard
14052,Rochester / Albertson (SB),42.6857439,-83.1340921,0,14052,standard
14051,Rochester / Lysander (SB),42.6875381,-83.1341779,0,14051,standard
14050,Rochester / Woodward (SB),42.6887447,-83.1342316,0,14050,standard
14049,Rochester / Glendale (SB),42.6909094,-83.1343174,0,14049,standard
14048,Rochester / North (SB),42.6923328,-83.1343979,0,14048,standard
14047,Rochester / Tienken (SB),42.6953648,-83.1345534,0,14047,standard
14045,Gourmetrion Plaza (NB),42.6977639,-83.1355727,0,14045,standard
14046,Gourmetrion Plaza (SB),42.6978447,-83.1358007,0,14046,standard
14044,Rochester / Tienken (NB),42.6960784,-83.1342423,0,14044,standard
14043,Rochester / Tienken NS (NB),42.6937798,-83.1341565,0,14043,standard
14042,Rochester / Maywood (NB),42.6913747,-83.1340814,0,14042,standard
14041,Rochester / Woodward (NB),42.689206,-83.1340277,0,14041,standard
14040,Rochester / Lysander (NB),42.6877707,-83.1339687,0,14040,standard
14039,Rochester / Romeo (NB),42.686083,-83.1338775,0,14039,standard
14038,Rochester / University (NB),42.682321,-83.1336951,0,14038,standard
14067,Atwater / Beaubien (WB),42.3286145,-83.0382353,0,14067,downtown
14066,Atwater / Renaissance Center (EB),42.3281089,-83.0390936,0,14066,downtown
14068,Atwater / Renaissance Center (WB),42.328208,-83.0391526,0,14068,downtown
14065,Atwater / Bates (EB),42.3273554,-83.0419636,0,14065,downtown
14064,Atwater / Civic Center (EB),42.3254993,-83.0472636,0,14064,downtown
14063,Steve Yzerman / People Mover (SB),42.3251899,-83.0525529,0,14063,downtown
14062,Jefferson / Sixth (EB),42.3247616,-83.056367,0,14062,downtown
14061,Jefferson / Eighth (EB),42.3238057,-83.0592907,0,14061,standard
14060,Jefferson / Tenth (EB),42.3228142,-83.0618602,0,14060,standard
14059,Rosa Parks / Fort (SB),42.3221082,-83.0668169,0,14059,standard
14074,Jefferson / Tenth (WB),42.3227983,-83.062402,0,14074,standard
14073,Jefferson / Eighth (WB),42.3238018,-83.0598593,0,14073,standard
14072,Jefferson / Sixth (WB),42.3250471,-83.0569464,0,14072,downtown
14071,Steve Yzerman / People Mover (NB),42.3252415,-83.0523706,0,14071,downtown
14070,Atwater / Civic Center (WB),42.3256262,-83.0473387,0,14070,downtown
14069,Atwater / Bates NS (WB),42.3274664,-83.042028,0,14069,downtown
11175,Garfield / MISD (NB),42.6193902,-82.9530162,0,11175,standard
14227,Vinewood / Railway (SB),42.3268993,-83.093859,0,14227,standard
14226,Risdon / Grand Blvd (WB),42.3287038,-83.0937517,0,14226,standard
14151,Vinewood / Railway (NB),42.3269469,-83.0936712,0,14151,standard
14150,Toledo / Grand Blvd (WB),42.3258483,-83.0918419,0,14150,standard
14149,Grand Blvd / Jefferson (NB),42.31335,-83.0817783,0,14149,standard
14228,Grand Blvd / Fort (SB),42.3149377,-83.0836156,0,14228,standard
14056,Garfield / Dove (NB),42.6224415,-82.9531074,0,14056,standard
14133,Trumbull / Warren (SB),42.3518855,-83.0787178,0,14133,standard
14055,West End / Vanderbilt (SB),42.29458,-83.1151289,0,14055,standard
14054,West End / Melville (SB),42.2961474,-83.1163251,0,14054,standard
14053,West End / Fort (SB),42.2999604,-83.1191146,0,14053,standard
14037,West End / Melville (NB),42.2963934,-83.1163359,0,14037,standard
14036,West End / Vanderbilt (NB),42.2948102,-83.115086,0,14036,standard
14035,West End / Jefferson (NB),42.2925444,-83.1134498,0,14035,standard
14393,Eight Beech Plaza,42.4429125,-83.2972455,0,14393,standard
14392,Jefferson / Hickler (WB),42.5681029,-82.8406531,0,14392,standard
14391,Jefferson / Ponchartrain (WB),42.5700031,-82.8382391,0,14391,standard
14390,Jefferson / Clio (WB),42.571133,-82.8344679,0,14390,standard
14389,Jefferson / Hiller (WB),42.5697187,-82.8304285,0,14389,standard
14388,Jefferson / Harbor Club North (WB),42.5719271,-82.826491,0,14388,standard
14387,Jefferson / Siesta (WB),42.5731241,-82.8217113,0,14387,standard
14386,Jefferson / Baywood (WB),42.5744593,-82.8197962,0,14386,standard
14385,Jefferson / Foxcroft NS (WB),42.5762369,-82.8170818,0,14385,standard
14384,Jefferson / Prentiss NS (WB),42.577584,-82.8151184,0,14384,standard
14383,Jefferson / Mast (WB),42.5790889,-82.8128386,0,14383,standard
14382,Jefferson / Cherry (WB),42.5806018,-82.810607,0,14382,standard
14381,Jefferson / Metro Parkway (WB),42.581767,-82.8101885,0,14381,standard
14380,Jefferson / Cherry (EB),42.5808388,-82.8100866,0,14380,standard
14379,Jefferson / Mast (EB),42.5791561,-82.812404,0,14379,standard
14378,Jefferson / Seaway (EB),42.5777815,-82.8145337,0,14378,standard
14377,Jefferson / Terra Mar (EB),42.5763989,-82.8165561,0,14377,standard
14376,Jefferson / Maplehill (EB),42.5746292,-82.819249,0,14376,standard
14375,Jefferson / Siesta (EB),42.5731478,-82.8213465,0,14375,standard
14374,Jefferson / Harbor Club North (EB),42.5719745,-82.8259546,0,14374,standard
14373,Jefferson / Hiller (EB),42.5697148,-82.8299511,0,14373,standard
14372,Jefferson / Clio (EB),42.5708683,-82.8344142,0,14372,standard
14371,Jefferson / Ponchartrain (EB),42.5702046,-82.8376114,0,14371,standard
14370,Jefferson / Hickler (EB),42.5683557,-82.8400791,0,14370,standard
14369,Jefferson / Crocker (EB),42.5665779,-82.8420746,0,14369,standard
14057,Vernor / Clark (EB),42.3203293,-83.0954978,0,14057,standard
14058,Vernor / Clark (WB),42.3202559,-83.0961227,0,14058,standard
14347,Mack / Woodward (EB),42.3474992,-83.0575043,0,14347,standard
14346,Martin Luther King Jr / Cass (EB),42.3455664,-83.0604279,0,14346,standard
14345,Martin Luther King Jr / Second (EB),42.3448865,-83.062638,0,14345,standard
14344,Martin Luther King Jr / Third (EB),42.344153,-83.064926,0,14344,standard
14343,Martin Luther King Jr / Lodge (EB),42.3433243,-83.0675089,0,14343,standard
14342,Martin Luther King Jr / Gibson (EB),42.3422755,-83.0708081,0,14342,standard
14341,Martin Luther King Jr / Grand River NS (EB),42.3417422,-83.0724925,0,14341,standard
14340,Martin Luther King Jr / Cochrane (EB),42.3410583,-83.0746517,0,14340,standard
14339,Martin Luther King Jr / Rosa Parks (EB),42.3403683,-83.0768672,0,14339,standard
14338,Martin Luther King Jr / Fourteenth (EB),42.3391748,-83.0806893,0,14338,standard
14337,Martin Luther King Jr / Sixteenth (EB),42.3384948,-83.0828217,0,14337,standard
14336,Martin Luther King Jr / Eighteenth (EB),42.3376819,-83.0853108,0,14336,standard
14335,Martin Luther King Jr / Lawton (EB),42.3368333,-83.0881727,0,14335,standard
14334,Martin Luther King Jr / Jeffries NS (EB),42.3357983,-83.0914181,0,14334,standard
14333,Martin Luther King Jr / Twenty-Fourth (EB),42.3349477,-83.0940628,0,14333,standard
14332,Martin Luther King Jr / Grand Blvd (EB),42.3339286,-83.096332,0,14332,standard
14331,Clark / Kautex (NB),42.3278789,-83.1011492,0,14331,standard
14330,Clark / Ideal Contracting (NB),42.325418,-83.0993843,0,14330,standard
14329,Clark / Toledo (NB),42.3233377,-83.0979064,0,14329,standard
14328,Clark / Vernor (NB),42.3204542,-83.0958465,0,14328,standard
14368,Scotten / Toledo (SB),42.3237224,-83.0960342,0,14368,standard
14367,Toledo / Clark (EB),42.3231731,-83.0977079,0,14367,standard
14366,Clark / Ideal Contracting (SB),42.3251721,-83.099454,0,14366,standard
14365,Clark / Kautex (SB),42.3277797,-83.1013531,0,14365,standard
14364,Clark / Michigan (SB),42.3308711,-83.1026512,0,14364,standard
14363,Martin Luther King Jr / Twenty-Fourth (WB),42.3350429,-83.0945858,0,14363,standard
14362,Martin Luther King Jr / Jeffries (WB),42.3360501,-83.0915952,0,14362,standard
14361,Martin Luther King Jr / Lawton (WB),42.3369424,-83.0888727,0,14361,standard
14360,Martin Luther King Jr / Eighteenth (WB),42.3378127,-83.0859384,0,14360,standard
14359,Martin Luther King Jr / Sixteenth (WB),42.3386038,-83.0834493,0,14359,standard
14358,Martin Luther King Jr / Fourteenth (WB),42.3392997,-83.0813706,0,14358,standard
14357,Martin Luther King Jr / Rosa Parks (WB),42.340517,-83.0774599,0,14357,standard
14356,Martin Luther King Jr / Cochrane (WB),42.3412268,-83.0751747,0,14356,standard
14355,Martin Luther King Jr / Grand River (WB),42.3418414,-83.0731577,0,14355,standard
14354,Martin Luther King Jr / Gibson (WB),42.3424341,-83.0712345,0,14354,standard
14353,Martin Luther King Jr / Lodge (WB),42.3432192,-83.0687293,0,14353,standard
14352,Martin Luther King Jr / Third (WB),42.344256,-83.0654517,0,14352,standard
14351,Martin Luther King Jr / Second (WB),42.3448805,-83.0633327,0,14351,standard
14350,Martin Luther King Jr / Cass (WB),42.3455843,-83.0611146,0,14350,standard
14349,Martin Luther King Jr / Woodward (WB),42.3473952,-83.0583331,0,14349,standard
14348,Mack / John R (WB),42.3483517,-83.0562383,0,14348,standard
14320,Mt Elliott / Harper NS (NB),42.3788244,-83.0331016,0,14320,standard
14319,Mt Elliott / Grand Blvd (NB),42.3770055,-83.0318034,0,14319,standard
14327,Mt Elliott / Harper (SB),42.378769,-83.0333215,0,14327,standard
14326,Mt Elliott / Harper NS (SB),42.3799419,-83.0349523,0,14326,standard
14322,Eighteen Mile / Public Works (EB),42.5947608,-83.0355853,0,14322,standard
14321,Eighteen Mile / Sterling Innovation District (EB),42.5944488,-83.0429399,0,14321,standard
14325,Eighteen Mile / Sterling Innovation District (WB),42.5946423,-83.0434924,0,14325,standard
14324,Eighteen Mile / Public Works (WB),42.5949721,-83.0360252,0,14324,standard
14323,Eighteen Mile / Van Dyke (WB),42.5951241,-83.0316263,0,14323,standard
14225,Tireman / Scotten NS (EB),42.3555015,-83.1126747,0,14225,standard
14224,Tireman / Firwood (EB),42.3542508,-83.1160033,0,14224,standard
14223,Tireman / Beechwood (EB),42.3530892,-83.1190932,0,14223,standard
14222,Tireman / Begole (EB),42.3517691,-83.1228429,0,14222,standard
14221,Tireman / Northfield (EB),42.3518127,-83.125332,0,14221,standard
14220,Tireman / Epworth (EB),42.351884,-83.1293875,0,14220,standard
14219,Tireman / Military (EB),42.3519554,-83.1331909,0,14219,standard
14218,Tireman / Livernois (EB),42.3519911,-83.1351382,0,14218,standard
14217,Tireman / Rangoon (EB),42.3520268,-83.1380671,0,14217,standard
14216,Tireman / Wykes (EB),42.3519713,-83.1418544,0,14216,standard
14215,Tireman / Bryden (EB),42.3519039,-83.1450462,0,14215,standard
14214,Tireman / Greenlawn (EB),42.3518484,-83.1485063,0,14214,standard
14213,Tireman / Northlawn (EB),42.3517849,-83.1515318,0,14213,standard
14212,Tireman / Wisconsin (EB),42.3517374,-83.1537527,0,14212,standard
14211,Tireman / Wyoming (EB),42.351666,-83.1570303,0,14211,standard
14210,Wyoming / Belton (SB),42.3539931,-83.1577545,0,14210,standard
14209,Wyoming / Mackenzie (SB),42.3563795,-83.1578994,0,14209,standard
14208,Wyoming / Joy (SB),42.358643,-83.1580335,0,14208,standard
14207,Wyoming / Oakman (SB),42.3613266,-83.1581354,0,14207,standard
14206,Wyoming / Westfield (SB),42.3638832,-83.1582105,0,14206,standard
14205,Wyoming / Chicago (SB),42.3660235,-83.1583017,0,14205,standard
14204,Wyoming / Crocuslawn (SB),42.3682431,-83.158409,0,14204,standard
14203,Wyoming / Elmira (SB),42.371164,-83.1585485,0,14203,standard
14202,Wyoming / Plymouth (SB),42.3732685,-83.1586504,0,14202,standard
14201,Wyoming / Davison NS (SB),42.3862739,-83.1591064,0,14201,standard
14200,Wyoming / Schoolcraft (SB),42.3882986,-83.1591654,0,14200,standard
14199,Wyoming / Intervale (SB),42.3915395,-83.1592995,0,14199,standard
14198,Wyoming / Lyndon (SB),42.3950655,-83.1594282,0,14198,standard
14197,Wyoming / Eaton (SB),42.3978386,-83.1595677,0,14197,standard
14196,Wyoming / Chalfonte (SB),42.4000887,-83.1596857,0,14196,standard
14195,Wyoming / Fenkell (SB),42.4022477,-83.1597716,0,14195,standard
14194,Wyoming / EB Lodge (SB),42.4040183,-83.159852,0,14194,standard
14193,Wyoming / Midland (SB),42.4059553,-83.1599593,0,14193,standard
14192,Wyoming / Pilgrim (SB),42.4077535,-83.160013,0,14192,standard
14191,Wyoming / Puritan (SB),42.4095597,-83.1600988,0,14191,standard
14190,Wyoming / Florence (SB),42.4120391,-83.1602061,0,14190,standard
14189,Wyoming / Grove (SB),42.4143996,-83.1603241,0,14189,standard
14188,Wyoming / McNichols (SB),42.4167362,-83.160426,0,14188,standard
14187,Wyoming / Grove (NB),42.4147481,-83.1601203,0,14187,standard
14186,Wyoming / Florence (NB),42.4122767,-83.1600076,0,14186,standard
14185,Wyoming / Puritan (NB),42.4098884,-83.1599003,0,14185,standard
14184,Wyoming / Pilgrim (NB),42.4080585,-83.1598198,0,14184,standard
14183,Wyoming / WB Lodge (NB),42.4058879,-83.1597179,0,14183,standard
14182,Wyoming / EB Lodge (NB),42.4045135,-83.1596482,0,14182,standard
14181,Wyoming / Fenkell (NB),42.4027626,-83.1595784,0,14181,standard
14180,Wyoming / Chalfonte (NB),42.4004096,-83.1594712,0,14180,standard
14179,Wyoming / Eaton (NB),42.3982071,-83.1593907,0,14179,standard
14178,Wyoming / Lyndon (NB),42.3954458,-83.1592512,0,14178,standard
14177,Wyoming / Intervale (NB),42.3918208,-83.1591117,0,14177,standard
14176,Wyoming / Schoolcraft (NB),42.3887661,-83.1589669,0,14176,standard
14175,Wyoming / Davison (NB),42.3862541,-83.1588918,0,14175,standard
14174,Wyoming / Elmira (NB),42.3715722,-83.1583715,0,14174,standard
14173,Wyoming / Crocuslawn (NB),42.3685879,-83.1582159,0,14173,standard
14172,Wyoming / Chicago (NB),42.3664556,-83.1581408,0,14172,standard
14171,Wyoming / Westfield (NB),42.3641884,-83.1580496,0,14171,standard
14170,Wyoming / Oakman (NB),42.3623572,-83.157953,0,14170,standard
14169,Wyoming / Joy (NB),42.3592376,-83.157835,0,14169,standard
14168,Wyoming / Mackenzie (NB),42.3567006,-83.1577009,0,14168,standard
14167,Wyoming / Belton (NB),42.3542389,-83.1575346,0,14167,standard
14166,Wyoming / Tireman (NB),42.352003,-83.1574112,0,14166,standard
14165,Tireman / Wisconsin (WB),42.3518682,-83.1541872,0,14165,standard
14164,Tireman / Northlawn (WB),42.3518999,-83.152079,0,14164,standard
14163,Tireman / Greenlawn (WB),42.3519713,-83.1488067,0,14163,standard
14162,Tireman / Bryden (WB),42.3520426,-83.1452233,0,14162,standard
14161,Tireman / Wykes (WB),42.35211,-83.1419617,0,14161,standard
14160,Tireman / Rangoon (WB),42.3521814,-83.1385016,0,14160,standard
14159,Tireman / Livernois (WB),42.3521497,-83.1362861,0,14159,standard
14158,Tireman / Military NS (WB),42.35211,-83.1333572,0,14158,standard
14157,Tireman / Epworth (WB),42.3520585,-83.1301063,0,14157,standard
14156,Tireman / Northfield (WB),42.3519594,-83.1259221,0,14156,standard
14155,Tireman / Begole (WB),42.3519237,-83.1232184,0,14155,standard
14154,Tireman / Beechwood (WB),42.3530813,-83.1195706,0,14154,standard
14153,Tireman / Firwood (WB),42.3543419,-83.1161642,0,14153,standard
14152,Tireman / Scotten (WB),42.3556184,-83.1127417,0,14152,standard
13938,Caniff / Ellery (WB),42.403642,-83.0496562,0,13938,standard
13937,Caniff / Buffalo (WB),42.404454,-83.047505,0,13937,standard
13936,Mt Elliott / Brockton (NB),42.4018515,-83.0377686,0,13936,standard
13935,Mt Elliott / Norwood (NB),42.3999065,-83.0375487,0,13935,standard
13934,Mt Elliott / Huber (NB),42.3976723,-83.0375004,0,13934,standard
13933,Mt Elliott / Rugg (NB),42.3953191,-83.0374146,0,13933,standard
13932,Mt Elliott / Georgia (NB),42.3935363,-83.0373234,0,13932,standard
13931,Georgia / Sherwood (WB),42.3936234,-83.0322111,0,13931,standard
13930,Georgia / Carrie (WB),42.3936551,-83.0292767,0,13930,standard
13929,St Cyril / Marcus (SB),42.3959727,-83.0269003,0,13929,standard
13928,St Cyril / Huber (SB),42.3975138,-83.0264604,0,13928,standard
13927,St Cyril / Marjorie (SB),42.3993955,-83.0254841,0,13927,standard
13926,Grinnell / Van Dyke NS (WB),42.4010117,-83.0223835,0,13926,standard
13925,Grinnell / Erwin (WB),42.4009919,-83.0180061,0,13925,standard
13924,Grinnell / McClellan (WB),42.4011464,-83.0133122,0,13924,standard
13923,Grinnell / Raymond (WB),42.4013088,-83.0088008,0,13923,standard
13922,Grinnell / Grace (WB),42.4014356,-83.0042142,0,13922,standard
13921,French / Gratiot (NB),42.400679,-83.00062,0,13921,standard
13920,Grinnell / Grace (EB),42.4013168,-83.0038387,0,13920,standard
13919,Grinnell / Raymond (EB),42.4011742,-83.0083823,0,13919,standard
13918,Grinnell / McClellan (EB),42.4010197,-83.0129099,0,13918,standard
13917,Grinnell / Erwin (EB),42.400881,-83.0174482,0,13917,standard
13916,Grinnell / Van Dyke (EB),42.400881,-83.0227268,0,13916,standard
13915,St Cyril / Marjorie (NB),42.3996609,-83.0249637,0,13915,standard
13914,St Cyril / Huber (NB),42.3978347,-83.0262137,0,13914,standard
13913,St Cyril / Marcus (NB),42.3962065,-83.0266589,0,13913,standard
13912,Georgia / Carrie (EB),42.3935402,-83.0288315,0,13912,standard
13911,Georgia / Sherwood (EB),42.3935046,-83.0318677,0,13911,standard
13910,Georgia / Mt Elliott (EB),42.3933659,-83.0371785,0,13910,standard
13909,Mt Elliott / Domine (SB),42.395121,-83.0376077,0,13909,standard
13908,Mt Elliott / Huber (SB),42.3973831,-83.037672,0,13908,standard
13907,Mt Elliott / Norwalk (SB),42.3996253,-83.0377632,0,13907,standard
13906,Mt Elliott / Brockton (SB),42.4014911,-83.0379081,0,13906,standard
13905,Caniff / Buffalo (EB),42.4044857,-83.0470115,0,13905,standard
13904,Caniff / Ellery (EB),42.4036658,-83.0492163,0,13904,standard
13942,Oakland / Greeley NS (NB),42.4044342,-83.0849165,0,13942,standard
13941,Oakland / Colorado (NB),42.4016654,-83.0830336,0,13941,standard
13940,Oakland / Connecticut (NB),42.3979258,-83.0804908,0,13940,standard
13939,Oakland / Woodland (NB),42.3963214,-83.0794448,0,13939,standard
13903,Oakland / Woodland (SB),42.395838,-83.0796754,0,13903,standard
13902,Oakland / Connecticut (SB),42.3975693,-83.0808502,0,13902,standard
13901,Oakland / Colorado (SB),42.4013286,-83.0833554,0,13901,standard
13900,Oakland / Buena Vista (SB),42.4041094,-83.0852169,0,13900,standard
14132,Trumbull / Merrick (SB),42.3540962,-83.0799919,0,14132,standard
14131,Trumbull / Stanley (SB),42.3578978,-83.082186,0,14131,standard
14130,Trumbull / Marquette (SB),42.3618102,-83.0837631,0,14130,standard
14129,Holden / Sterling (EB),42.3632014,-83.0856299,0,14129,standard
14128,Linwood / Chicago (SB),42.3763358,-83.1108052,0,14128,standard
14127,Linwood / Calvert (SB),42.3794585,-83.1128436,0,14127,standard
14126,Linwood / Burlingame (SB),42.3818955,-83.1145388,0,14126,standard
14125,Linwood / Elmhurst (SB),42.3842571,-83.1162125,0,14125,standard
14124,Linwood / Cortland (SB),42.3866464,-83.1178862,0,14124,standard
14123,Linwood / Fullerton (SB),42.3883976,-83.1190503,0,14123,standard
14122,Linwood / Glendale (SB),42.39003,-83.1201553,0,14122,standard
14121,Linwood / Tyler (SB),42.3914008,-83.1210887,0,14121,standard
14120,Linwood / Davison (SB),42.3927835,-83.1220222,0,14120,standard
14147,Linwood / Tyler (NB),42.3918684,-83.1210941,0,14147,standard
14146,Linwood / Glendale (NB),42.3903985,-83.120091,0,14146,standard
14145,Linwood / Fullerton (NB),42.3888335,-83.1190234,0,14145,standard
14144,Linwood / Cortland (NB),42.3867533,-83.1176448,0,14144,standard
14143,Linwood / Elmhurst (NB),42.3847643,-83.116234,0,14143,standard
14142,Linwood / Burlingame (NB),42.3823036,-83.1144744,0,14142,standard
14141,Linwood / Calvert (NB),42.3797636,-83.1127256,0,14141,standard
14140,Linwood / Chicago (NB),42.3768351,-83.1108588,0,14140,standard
14139,Linwood / Joy (NB),42.373641,-83.108756,0,14139,standard
14138,Holden / Sterling (WB),42.3633877,-83.0858874,0,14138,standard
14137,Lincoln / Marquette (NB),42.3622898,-83.0834413,0,14137,standard
14136,Trumbull / Stanley (NB),42.3582902,-83.0821431,0,14136,standard
14135,Trumbull / Merrick (NB),42.354441,-83.0798686,0,14135,standard
14134,Trumbull / Warren (NB),42.3524787,-83.0787957,0,14134,standard
13899,Harper / Sherwood (WB),42.3829931,-83.0311114,0,13899,standard
13898,Harper / Mt Elliott (EB),42.3791216,-83.0329245,0,13898,standard
13943,Seven Mile / Grand River NS (EB),42.4284735,-83.2891667,0,13943,standard
14148,Grand River / Seven Mile (EB),42.4283785,-83.2879114,0,14148,standard
14009,Telegraph / Eight Mile (NB),42.4428847,-83.2780784,0,14009,standard
14008,Telegraph / U-Haul (NB),42.4373067,-83.2782608,0,14008,standard
14007,Telegraph / Frisbee (NB),42.4353509,-83.2778961,0,14007,standard
14006,Telegraph / Verdun (NB),42.4333515,-83.2776278,0,14006,standard
14005,Telegraph / Seven Mile (NB),42.4293209,-83.2774508,0,14005,standard
14004,Telegraph / Clarita (NB),42.4267709,-83.2773489,0,14004,standard
14012,Telegraph / Frisbee (SB),42.435058,-83.2784861,0,14012,standard
14011,Telegraph / Norfolk (SB),42.4391754,-83.2793552,0,14011,standard
14010,Telegraph / Eight Mile (SB),42.4428689,-83.2787168,0,14010,standard
13944,Seven Mile / Winston (WB),42.4287982,-83.2838935,0,13944,standard
14097,Michigan / High Velocity Sports (EB),42.2693502,-83.4956431,0,14097,standard
14096,Michigan / Beck (EB),42.2671867,-83.5039312,0,14096,standard
14095,Michigan / Repair Clinic (EB),42.265043,-83.5112643,0,14095,standard
14094,Michigan / Old Michigan (EB),42.2576943,-83.5374856,0,14094,standard
14093,Michigan / Rawsonville (EB),42.2557448,-83.5438263,0,14093,standard
14092,Michigan / Wiard (EB),42.2504361,-83.5634118,0,14092,standard
14091,Michigan / Todd (EB),42.2488874,-83.5691518,0,14091,standard
14090,Michigan / Haris (EB),42.2455359,-83.5825574,0,14090,standard
14089,Michigan / Laundry Land (EB),42.2430499,-83.5930556,0,14089,standard
14088,Michigan / Prospect (EB),42.2410881,-83.6018694,0,14088,standard
14108,Cross / Ballard (WB),42.2458218,-83.6195344,0,14108,standard
14087,Washtenaw / Ballard (EB),42.2436139,-83.6189979,0,14087,standard
14086,Washtenaw / Mansfield (EB),42.2471521,-83.6367971,0,14086,standard
14085,Washtenaw / Hewitt (EB),42.2484506,-83.6471236,0,14085,standard
14084,Washtenaw / Fountain Plaza (EB),42.2496101,-83.6554706,0,14084,standard
14083,Washtenaw / Dalton (EB),42.2525565,-83.6738384,0,14083,standard
14082,Washtenaw / Carpenter (EB),42.2537199,-83.6797124,0,14082,standard
14081,Washtenaw / Yost NS (EB),42.2552644,-83.6880702,0,14081,standard
14080,Washtenaw / Arlington (EB),42.2581231,-83.7030423,0,14080,standard
14079,Washtenaw / Tuomy (EB),42.2652613,-83.7190604,0,14079,standard
14078,Washtenaw / Ferdon (EB),42.2699893,-83.7250578,0,14078,standard
14077,Washtenaw / University (EB),42.274828,-83.7312162,0,14077,standard
14076,William / Division (EB),42.2777335,-83.7439406,0,14076,standard
14118,Washtenaw / University (WB),42.2751932,-83.7313879,0,14118,standard
14117,Washtenaw / Vinewood (WB),42.2703624,-83.7252724,0,14117,standard
14116,Washtenaw / Tuomy (WB),42.2655908,-83.7191838,0,14116,standard
14115,Washtenaw / Arlington (WB),42.2583891,-83.7034178,0,14115,standard
14114,Washtenaw / Yost (WB),42.2555225,-83.6881346,0,14114,standard
14113,Washtenaw / Hogback NS (WB),42.253831,-83.6792404,0,14113,standard
14112,Washtenaw / Glencoe Hills (WB),42.2528384,-83.6743105,0,14112,standard
14111,Washtenaw / Fountain Plaza (WB),42.2498603,-83.6555565,0,14111,standard
14110,Washtenaw / Hewitt (WB),42.2487723,-83.6479604,0,14110,standard
14109,Washtenaw / Mansfield (WB),42.2474142,-83.6373496,0,14109,standard
14107,Michigan / Prospect (WB),42.241243,-83.6026096,0,14107,standard
14106,Michigan / Laundry Land (WB),42.2432366,-83.5931897,0,14106,standard
14105,Michigan / Harris (WB),42.2455796,-83.5833621,0,14105,standard
14104,Michigan / Spencer (WB),42.2490661,-83.5694897,0,14104,standard
14103,Michigan / Wiard (WB),42.2505512,-83.5638893,0,14103,standard
14102,Michigan / Willow Run (WB),42.2560863,-83.5445774,0,14102,standard
14101,Michigan / Dellor (WB),42.258266,-83.5371316,0,14101,standard
14100,Michigan / Repair Clinic (WB),42.2654797,-83.5114414,0,14100,standard
14099,Michigan / Beck NS (WB),42.2678378,-83.5033143,0,14099,standard
14098,Michigan / Victory Toyota (WB),42.2698305,-83.4957397,0,14098,standard
14023,Lahser / Clarita (NB),42.4264818,-83.2581711,0,14023,standard
14022,Lahser / Roxford (NB),42.4246801,-83.2581067,0,14022,standard
14021,Lahser / Karl (NB),42.423108,-83.2580799,0,14021,standard
14020,Lahser / Glenco (NB),42.4214369,-83.2580209,0,14020,standard
14019,Lahser / Santa Clara (NB),42.4188866,-83.2577688,0,14019,standard
14018,Lahser / Grand River (NB),42.4167719,-83.2575703,0,14018,standard
14017,Lahser / Verne (NB),42.4113262,-83.2571679,0,14017,standard
14016,Lahser / Puritan (NB),42.4075595,-83.2570124,0,14016,standard
14015,Lahser / Midland (NB),42.4040262,-83.2568622,0,14015,standard
14014,Lahser / Fenkell (NB),42.4006275,-83.2567227,0,14014,standard
14013,Lahser / Outer Dr (NB),42.3978862,-83.25661,0,14013,standard
14034,Lahser / Fenkell (SB),42.4000848,-83.2569158,0,14034,standard
14033,Lahser / Midland (SB),42.4037925,-83.2570607,0,14033,standard
14032,Lahser / Puritan (SB),42.4073733,-83.2572055,0,14032,standard
14031,Lahser / Verne (SB),42.4110252,-83.2574093,0,14031,standard
14030,Lahser / McNichols (SB),42.4144154,-83.2575327,0,14030,standard
14029,Lahser / Willmarth (SB),42.4186371,-83.2579351,0,14029,standard
14027,Lahser / Karl (SB),42.422621,-83.2582516,0,14027,standard
14028,Lahser / Glenco (SB),42.421235,-83.2581872,0,14028,standard
14026,Lahser / Roxford (SB),42.424399,-83.2582945,0,14026,standard
14025,Lahser / Clarita (SB),42.4263036,-83.2583427,0,14025,standard
14024,Lahser / Seven Mile (SB),42.4288259,-83.2584071,0,14024,standard
13956,Eight Mile / Redfern (EB),42.4430075,-83.2650805,0,13956,standard
13955,Eight Mile / Berg (EB),42.4429283,-83.2681167,0,13955,standard
13954,Eight Mile / Bonnieview Apartments (EB),42.4427699,-83.273508,0,13954,standard
13953,Eight Mile / Telegraph (EB),42.4426274,-83.2784432,0,13953,standard
13952,Eight Mile / Grandview (EB),42.4425047,-83.2847196,0,13952,standard
13951,Eight Mile / Wakedon (EB),42.4421405,-83.3006358,0,13951,standard
13950,Eight Mile / Woodworth (EB),42.442093,-83.3031249,0,13950,standard
13949,Eight Mile / Delaware (EB),42.4419861,-83.3069444,0,13949,standard
13948,Eight Mile / Denby (EB),42.4419188,-83.3102971,0,13948,standard
13947,Eight Mile / Negaunee (EB),42.4418713,-83.3130544,0,13947,standard
13946,Eight Mile / Inkster (EB),42.441804,-83.3161068,0,13946,standard
13945,Eight Mile / Grand River (EB),42.4417446,-83.3189929,0,13945,standard
13988,Eight Mile / Grand River NS (EB),42.4417882,-83.3222812,0,13988,standard
13987,Eight Mile / Angling NS (EB),42.441709,-83.326385,0,13987,standard
13986,Eight Mile / Brentwood (EB),42.4416298,-83.3298719,0,13986,standard
13985,Eight Mile / Willow (EB),42.4415427,-83.3339167,0,13985,standard
13984,Eight Mile / Middlebelt (EB),42.4414913,-83.3359176,0,13984,standard
13983,Eight Mile / Beatrice (EB),42.4413725,-83.3401823,0,13983,standard
13982,Eight Mile / Melvin NS (EB),42.4413092,-83.3434546,0,13982,standard
13981,Eight Mile / Purlingbrook (EB),42.4412419,-83.3460885,0,13981,standard
13980,Eight Mile / Milburn (EB),42.4411271,-83.349672,0,13980,standard
13979,Eight Mile / Randall (EB),42.4410796,-83.352263,0,13979,standard
13978,Eight Mile / Merriman (EB),42.4409925,-83.3555728,0,13978,standard
13977,Eight Mile / Osmus (EB),42.4408698,-83.3605617,0,13977,standard
13976,Eight Mile / Parker (EB),42.4407985,-83.3630669,0,13976,standard
13975,Eight Mile / Hubbard (EB),42.4407312,-83.3654004,0,13975,standard
13974,Eight Mile / Mayfield (EB),42.4406441,-83.3689463,0,13974,standard
13973,Eight Mile / Shadyside (EB),42.4405412,-83.3723527,0,13973,standard
13972,Eight Mile / Farmington (EB),42.440462,-83.3750564,0,13972,standard
14003,Eight Mile / Shadyside (WB),42.440747,-83.3729374,0,14003,standard
14002,Eight Mile / Chelsey (WB),42.4408539,-83.3691448,0,14002,standard
14001,Eight Mile / Hugo (WB),42.4409925,-83.3645904,0,14001,standard
14000,Eight Mile / Osmus (WB),42.4410835,-83.3608943,0,14000,standard
13999,Eight Mile / Orchard Lake (WB),42.4411983,-83.3563292,0,13999,standard
13998,Eight Mile / Randall (WB),42.4412735,-83.353411,0,13998,standard
13997,Eight Mile / Milburn (WB),42.4413606,-83.3501709,0,13997,standard
13996,Eight Mile / Tuck (WB),42.4414359,-83.3469254,0,13996,standard
13995,Eight Mile / Radcliff (WB),42.4415111,-83.3438462,0,13995,standard
13994,Eight Mile / Kenwood (WB),42.4416061,-83.3400267,0,13994,standard
13993,Eight Mile / Middlebelt (WB),42.4416853,-83.3367652,0,13993,standard
13992,Eight Mile / Willow (WB),42.4417407,-83.3342117,0,13992,standard
13991,Eight Mile / Brentwood (WB),42.4418397,-83.3303922,0,13991,standard
13990,Eight Mile / Pearl (WB),42.4419109,-83.3267659,0,13990,standard
13989,Eight Mile / Grand River (WB),42.4420376,-83.3223242,0,13989,standard
13970,Eight Mile / Inkster (WB),42.442283,-83.317185,0,13970,standard
13969,Eight Mile / Negaunee (WB),42.4423543,-83.3134568,0,13969,standard
13968,Eight Mile / Indian (WB),42.4424097,-83.3110213,0,13968,standard
13967,Eight Mile / Delaware (WB),42.442473,-83.3075666,0,13967,standard
13966,Eight Mile / East NS (WB),42.4425601,-83.3043104,0,13966,standard
13965,Eight Mile / Wakedon (WB),42.4426393,-83.3012259,0,13965,standard
13964,Eight Mile / Beech (WB),42.4427343,-83.297841,0,13964,standard
13963,Eight Mile / Department of Human Services (WB),42.4427937,-83.2945633,0,13963,standard
13962,Eight Mile / Telegraph (WB),42.4431381,-83.2783306,0,13962,standard
13961,Eight Mile / Sherman (WB),42.4432727,-83.273626,0,13961,standard
13960,Eight Mile / Berg (WB),42.4434231,-83.2688731,0,13960,standard
13959,Eight Mile / Sam's Club (WB),42.4435181,-83.2646889,0,13959,standard
13958,Eight Mile / Lahser (WB),42.4436567,-83.2592976,0,13958,standard
13957,Eight Mile / Southfield Salvage Yard (WB),42.4438071,-83.2531554,0,13957,standard
13870,Green / Base (EB),42.6798326,-82.7386594,0,13870,standard
13869,Green / Rose (EB),42.6780737,-82.741245,0,13869,standard
13885,Lenox Township Meijer,42.7215584,-82.7421355,0,13885,standard
13897,Green / Blackwell (WB),42.6825931,-82.735033,0,13897,standard
13896,Green / Ashley (WB),42.6839418,-82.733016,0,13896,standard
13895,County Line / Woodland (SB),42.6907793,-82.7287245,0,13895,standard
13894,County Line / Creekview (SB),42.6938547,-82.7288532,0,13894,standard
13893,County Line / St Clair (SB),42.6980103,-82.7290678,0,13893,standard
13892,County Line / Perry (SB),42.7004231,-82.7291536,0,13892,standard
13891,County Line / Orchard Lake (SB),42.7031196,-82.7293146,0,13891,standard
13890,County Line / Twenty-Five Mile (SB),42.7057923,-82.7294111,0,13890,standard
13889,County Line / Hobarth (SB),42.7132265,-82.7297545,0,13889,standard
13888,County Line / Radiance (SB),42.718374,-82.7300012,0,13888,standard
13887,County Line / Twenty-Six Mile (SB),42.7206047,-82.7300871,0,13887,standard
13886,Twenty-Six Mile / Frost (EB),42.7204864,-82.7396464,0,13886,standard
13884,Twenty-Six Mile / Millstone Pond (WB),42.720786,-82.7396572,0,13884,standard
13883,Twenty-Six Mile / County Line (WB),42.7209751,-82.7303124,0,13883,standard
13882,County Line / Radiance (NB),42.7187681,-82.7296794,0,13882,standard
13881,County Line / Hobarth (NB),42.7136916,-82.7294487,0,13881,standard
13880,County Line / Twenty-Five Mile (NB),42.7063087,-82.7291536,0,13880,standard
13879,County Line / Orchard Lake (NB),42.7035808,-82.728982,0,13879,standard
13878,County Line / Brett (NB),42.7010814,-82.7288908,0,13878,standard
13877,County Line / St Clair (NB),42.6984913,-82.7287781,0,13877,standard
13876,County Line / Creekview (NB),42.6941978,-82.7285367,0,13876,standard
13875,County Line / Woodland (NB),42.6910435,-82.7284402,0,13875,standard
13874,County Line / Green (NB),42.6873606,-82.7282739,0,13874,standard
13873,Green / Ashley (EB),42.6840246,-82.7324796,0,13873,standard
13872,Green / Blackwell (EB),42.6826168,-82.7345073,0,13872,standard
13871,Green / Washington (EB),42.6812523,-82.7365351,0,13871,standard
13867,Woodward / Reuther Station (NB),42.4753248,-83.1450805,0,13867,standard
13866,Reuther Station / Woodward (WB),42.4753199,-83.1454096,0,13866,standard
13865,Reuther Station / Woodward (EB),42.4750723,-83.1453734,0,13865,standard
13868,Woodward / Reuther Station (SB),42.4750602,-83.1457518,0,13868,standard
13863,M-14 / Sheldon NS (EB),42.3834963,-83.4804726,0,13863,standard
13864,M-14 / Sheldon (EB),42.3833814,-83.4804457,0,13864,standard
3781,Harper / Yorkshire St (SB),42.5584544,-82.8703022,0,3781,standard
2497,Fenkell / Westbrook (EB),42.400374,-83.2504678,0,2497,standard
10783,Beech Daly / Dover (SB),42.3585281,-83.2945418,0,10783,standard
9743,Canfield / Chrysler (WB),42.3564192,-83.0523491,0,9743,standard
7280,Fifteen Mile / Hayes (EB),42.5529696,-82.9699087,0,7280,standard
484,Wayne / Glenwood (SB),42.2882467,-83.3848143,0,484,standard
12701,Hoover / Fisher (SB),42.4510668,-83.005625,0,12701,standard
4552,Harper / Grayton (NB),42.4154174,-82.9382855,0,4552,standard
9828,Sheldon / Thornapple (NB),42.4195044,-83.4823608,0,9828,standard
13548,Michigan / Woodward (WB),42.3317911,-83.0475131,0,13548,downtown
3187,Third / Peterboro (SB),42.3421308,-83.0641455,0,3187,standard
7990,Newburgh / Chestnut (NB),42.3446842,-83.4094906,0,7990,standard
9995,Beck / Ten Mile (NB),42.4659556,-83.514086,0,9995,standard
12966,Davison / Mound (WB),42.4224151,-83.0436212,0,12966,standard
1362,Gratiot / Eleven Mile (SB),42.49365,-82.9393744,0,1362,standard
10188,Orchard Lake / Walnut (EB),42.6325853,-83.3009362,0,10188,standard
1794,Jefferson / Sibley Gardens (SB),42.1600633,-83.174293,0,1794,standard
11852,Ten Mile / Taft (WB),42.4661297,-83.4947634,0,11852,standard
2795,Providence / Nine Mile (SB),42.4588955,-83.2071233,0,2795,standard
11273,Mack / Eastlawn (EB),42.3857945,-82.9564118,0,11273,standard
90,Gratiot / Warren (SB),42.373637,-83.0183172,0,90,standard
761,Woodward / Campus Martius (NB),42.3322492,-83.0469739,0,761,downtown
7685,Avon / Chippewa (WB),42.6667067,-83.1179452,0,7685,standard
1611,Van Dyke / Thirteen Mile (SB),42.5209368,-83.0291319,0,1611,standard
6700,Thirteen Mile / Orchard Lake (EB),42.5136615,-83.3588076,0,6700,standard
1498,Van Dyke / Theisen (NB),42.4747084,-83.0269432,0,1498,standard
9906,Canton Center / Saltz (SB),42.3145361,-83.4876931,0,9906,standard
7934,Ford / Huff (WB),42.3240477,-83.4121728,0,7934,standard
9241,Schaefer / Division (SB),42.2738952,-83.1367743,0,9241,standard
11666,Mott / Near M-59 (NB),42.6446096,-83.2287043,0,11666,standard
7308,Wixom / Johanna (NB),42.5258787,-83.5359836,0,7308,standard
13035,Whittier / Duchess (EB),42.4196866,-82.9598558,0,13035,standard
4666,Davison / Roselawn (WB),42.3863492,-83.1508881,0,4666,standard
9321,Livernois / John Kronk (NB),42.3246624,-83.1153971,0,9321,standard
2460,Five Mile / Woodring (EB),42.3970384,-83.3697939,0,2460,standard
10436,Eureka / Ninth NS (EB),42.1995932,-83.1652379,0,10436,standard
1643,Van Dyke / Robinwood (SB),42.4320252,-83.0242932,0,1643,standard
13600,Hayes / Park & Ride (SB),42.6698583,-82.9751605,0,13600,standard
10673,Grand Blvd / Jeffries NS (NB),42.3549405,-83.1102955,0,10673,standard
9856,Novi / Citation (SB),42.4561884,-83.4743571,0,9856,standard
1053,Woodward / Hazelwood (SB),42.3810118,-83.0806893,0,1053,standard
13423,Jefferson / Summit (WB),42.3057213,-83.0895782,0,13423,standard
6107,Ten Mile / Warner (EB),42.4764651,-83.0747509,0,6107,standard
3490,Russell / Winder (SB),42.3458222,-83.0402523,0,3490,downtown
13347,Ann Arbor Trail / Sanford (EB),42.3465517,-83.3626217,0,13347,standard
10205,Orchard Lake / Woodland (WB),42.6087587,-83.3363628,0,10205,standard
4772,Main / Union (SB),42.3741601,-83.4654522,0,4772,standard
12948,McNichols / Gratiot (WB),42.426953,-82.9834592,0,12948,standard
9159,Coolidge / Woodward NS (NB),42.5159015,-83.1859472,0,9159,standard
12941,Houston-Whittier / Hayes (WB),42.4208548,-82.9654509,0,12941,standard
10350,Meridian / Horse Mill (NB),42.1637136,-83.1572771,0,10350,standard
3745,Harper / Shook (NB),42.557506,-82.8700233,0,3745,standard
12720,Conner / Mack (SB),42.3834408,-82.9678488,0,12720,standard
536,Grand River / Sussex (WB),42.3913573,-83.1947422,0,536,standard
13349,Ann Arbor Trail / Berwick (EB),42.3466349,-83.3568066,0,13349,standard
5111,Seven Mile / Langholm (WB),42.4342899,-83.011483,0,5111,standard
2702,Northwestern / Inkster (NB),42.5076666,-83.3201838,0,2702,standard
4768,Plymouth / E Haggerty (WB),42.3746674,-83.4457755,0,4768,standard
1885,Fort / Northampton (NB),42.2808015,-83.1510758,0,1885,standard
13125,Ecorse / Wayne Course (WB),42.2522944,-83.3949369,0,13125,standard
2378,Fenkell / Greenfield (WB),42.401594,-83.1989264,0,2378,standard
3268,John R / Jarvis (NB),42.4570275,-83.1034184,0,3268,standard
9318,Dragoon / Vernor (NB),42.3158451,-83.1085682,0,9318,standard
9690,Hayes / Adams (SB),42.5365125,-82.9696941,0,9690,standard
11577,Cherry Hill / Starlite (WB),42.6684738,-83.3192825,0,11577,standard
1178,Gratiot / Ellery (NB),42.3622541,-83.0253553,0,1178,standard
5335,Outer Dr / Haverhill (EB),42.4061414,-82.9458332,0,5335,standard
6951,Fourteen Mile / Orchard Lane (EB),42.530591,-83.2604992,0,6951,standard
7843,McGraw / Sixteenth (EB),42.3573547,-83.0936337,0,7843,standard
3301,John R / Grand Haven (NB),42.5435164,-83.1072593,0,3301,standard
12330,Division / Walker (NB),42.2634074,-82.9693508,0,12330,standard
4686,Plymouth / Whitcomb (WB),42.3727057,-83.1955147,0,4686,standard
11035,University / Great Oaks (EB),42.681694,-83.1479645,0,11035,standard
12085,Lapeer / Pratt (NB),42.9559828,-83.3138537,0,12085,standard
9207,Schaefer / Ellis (SB),42.3607043,-83.1776726,0,9207,standard
12553,Seven Mile / Mayfield (EB),42.4261967,-83.3685815,0,12553,standard
2850,Hamilton / Highland (SB),42.3941464,-83.1007791,0,2850,standard
7876,Ford / Horger (WB),42.3297746,-83.1800866,0,7876,standard
11959,Highland / Tipsico Lake (WB),42.6357741,-83.6793637,0,11959,standard
881,Woodward / Berkshire (NB),42.6090745,-83.2690072,0,881,standard
2504,Fenkell / Warwick (EB),42.4007939,-83.2287097,0,2504,standard
8606,Outer Dr / Kendall (NB),42.3884254,-83.2561433,0,8606,standard
12219,Gratiot / Busha (NB),42.9268443,-82.4611688,0,12219,standard
13643,Franklin / Franklin Pointe (SB),42.4945162,-83.3012098,0,13643,standard
9063,Jefferson / Outer Dr (NB),42.2480297,-83.1421494,0,9063,standard
10519,Southfield / Roosevelt (EB),42.2604616,-83.2116938,0,10519,standard
4543,Harper / Wayburn (EB),42.4061652,-82.959196,0,4543,standard
685,Grand River / Grand Lawn Cemetery (EB),42.4216033,-83.2709599,0,685,standard
12840,Haggerty / Crumb (SB),42.5451527,-83.4386838,0,12840,standard
2399,Fenkell / Hazelton (WB),42.4002947,-83.2680416,0,2399,standard
3549,Schoenherr / Utica (NB),42.5772758,-82.989049,0,3549,standard
2333,Rosa Parks / Pallister (NB),42.3672007,-83.0928397,0,2333,standard
8966,Greenfield / Mt Vernon (SB),42.466383,-83.2015872,0,8966,standard
5052,McNichols / Davison (EB),42.4187678,-83.0525529,0,5052,standard
12446,Six Mile / Hubbard (WB),42.4120114,-83.3646977,0,12446,standard
8069,Haggerty / Grand River (SB),42.4715073,-83.4352184,0,8069,standard
7062,Fourteen Mile / Kennedy NS (WB),42.5390739,-82.9463696,0,7062,standard
8821,Evergreen / Pickford (SB),42.4244069,-83.2386875,0,8821,standard
8495,Telegraph / McNichols (SB),42.4142847,-83.2775259,0,8495,standard
1292,Gratiot / Kuchenmeister (NB),42.662983,-82.8424019,0,1292,standard
4359,Warren / Hubbard (WB),42.3395614,-83.3608246,0,4359,standard
368,Michigan / Gulley (EB),42.2974132,-83.2851648,0,368,standard
243,Michigan / Ternes (WB),42.3309167,-83.1423426,0,243,standard
3303,John R / Maple (NB),42.5493972,-83.1074953,0,3303,standard
8504,Telegraph / Acacia (SB),42.3902638,-83.2766891,0,8504,standard
3919,Lakeshore / Woodland Shore (NB),42.4160115,-82.8829944,0,3919,standard
12444,Six Mile / Merriman (WB),42.412249,-83.3550203,0,12444,standard
8085,Haggerty / Seven Mile (SB),42.4246603,-83.4332228,0,8085,standard
4130,Warren / Lucerne (EB),42.3408144,-83.3002281,0,4130,standard
1162,Washington / Congress (SB),42.3285689,-83.049227,0,1162,downtown
3921,Lakeshore / Clairview (NB),42.4229655,-82.8804624,0,3921,standard
9708,Hayes / Regency Club (SB),42.4890615,-82.9676342,0,9708,standard
10447,Biddle / Alkali (NB),42.2172115,-83.1500673,0,10447,standard
11046,Walton / Livernois (WB),42.6817256,-83.1537795,0,11046,standard
10845,Inkster / Joy (SB),42.3549762,-83.3129311,0,10845,standard
13231,Haggerty / Singh (SB),42.2877467,-83.4475029,0,13231,standard
4361,Warren / Farmington (WB),42.339387,-83.3712101,0,4361,standard
7546,Twenty-Three Mile / Shelby (EB),42.6687933,-83.0630403,0,7546,standard
4294,Warren / Edsel Ford (WB),42.3448111,-83.1140184,0,4294,standard
10903,Dequindre / Raceway (NB),42.4717329,-83.0843425,0,10903,standard
6202,Mack / Hollywood (NB),42.4467127,-82.9059863,0,6202,standard
10897,Dequindre / Pearl (NB),42.4578349,-83.0836773,0,10897,standard
13681,Territorial / Beacon Meadows (WB),42.3775246,-83.4930092,0,13681,standard
9037,Dix / McLain (NB),42.2494712,-83.1949353,0,9037,standard
4428,Plymouth / Evergreen (EB),42.3717625,-83.2359785,0,4428,standard
9496,Livernois / Lodge (SB),42.4043827,-83.1405187,0,9496,standard
6836,Thirteen Mile / Roan (WB),42.5216326,-83.0013013,0,6836,standard
12433,Six Mile / Rougeway (WB),42.4131599,-83.3194971,0,12433,standard
8565,Monroe / Edison (SB),42.2968656,-83.2464767,0,8565,standard
5839,Nine Mile / Gratiot NS (EB),42.4645468,-82.9589224,0,5839,standard
5361,Mack / Greyton (WB),42.3940117,-82.9249656,0,5361,standard
7922,Ford / Hubbard (WB),42.3251106,-83.3602452,0,7922,standard
3245,Joseph Campau / Nevada (NB),42.4259512,-83.0725247,0,3245,standard
9168,Coolidge / Oak Park (SB),42.4656628,-83.1823772,0,9168,standard
5470,Seven Mile / Evergreen (WB),42.429701,-83.2392347,0,5470,standard
12577,Conner / Forest (NB),42.3884412,-82.9733312,0,12577,standard
13311,Ann Arbor / Ann Arbor Trail (WB),42.3620797,-83.4162712,0,13311,standard
7283,Fifteen Mile / Utica (EB),42.5532542,-82.960639,0,7283,standard
10592,Eureka / Schafer (EB),42.1988302,-83.2137752,0,10592,standard
1367,Gratiot / Curtis (SB),42.4829693,-82.946316,0,1367,standard
8818,Evergreen / Vassar (SB),42.4330863,-83.2390952,0,8818,standard
1988,Ecorse / Cherokee (EB),42.2550063,-83.280648,0,1988,standard
866,Woodward / Big Beaver (NB),42.5603194,-83.2239676,0,866,standard
11007,Perry / Parkwood (NB),42.6615313,-83.2700372,0,11007,standard
6322,Ten Mile / Pierce (WB),42.4737271,-83.2116294,0,6322,standard
2166,Wayne / Woodcrest (SB),42.3491565,-83.3857799,0,2166,standard
1482,Van Dyke / Seven Mile (NB),42.4341473,-83.0241108,0,1482,standard
5411,Seven Mile / Shields (WB),42.4332842,-83.0599666,0,5411,standard
757,Larned / Griswold (EB),42.3290607,-83.0458045,0,757,downtown
5314,Conner / Findlay (SB),42.411338,-83.005904,0,5314,standard
1865,Fort / Liberty (NB),42.2347137,-83.1798935,0,1865,standard
9361,Livernois / Seven Mile (NB),42.4318034,-83.1413555,0,9361,standard
10476,Southfield / Allen (WB),42.2593499,-83.2061577,0,10476,standard
2684,Eleven Mile / Corporate (WB),42.4871785,-83.2579994,0,2684,standard
3983,Fifteen Mile / Willis (WB),42.5549771,-82.8910303,0,3983,standard
9422,Rochester / Second (NB),42.6783892,-83.13362,0,9422,standard
9934,I-94 Service Drive / Water's Edge (WB),42.2189119,-83.5000849,0,9934,standard
4227,Warren / Three Mile (EB),42.4023388,-82.9397821,0,4227,standard
4222,Warren / Alter (EB),42.3970463,-82.9542017,0,4222,standard
10619,Ford / Ninth (EB),42.2138503,-83.1630492,0,10619,standard
795,Woodward / McLean (NB),42.3992331,-83.0925822,0,795,standard
3661,Kercheval / Nottingham (EB),42.3823551,-82.9375291,0,3661,standard
3113,Outer Dr / Mark Twain (EB),42.4199004,-83.1871676,0,3113,standard
337,Michigan / Hannan (EB),42.2787853,-83.4267855,0,337,standard
13591,Hayes / Meadowfield (NB),42.6466062,-82.9739106,0,13591,standard
4388,Plymouth / Merriman (EB),42.3685958,-83.3520484,0,4388,standard
3574,Schoenherr / Metro Parkway (SB),42.5668781,-82.9880619,0,3574,standard
5287,Seven Mile / Lumpkin (EB),42.4328408,-83.0802119,0,5287,standard
6126,Ten Mile / Hesse (EB),42.477747,-83.0097342,0,6126,standard
8589,Outer Dr / W Warren (NB),42.3422577,-83.2520664,0,8589,standard
5939,Nine Mile / Rosewood (WB),42.460257,-83.1624484,0,5939,standard
6656,Twelve Mile / Lancaster (WB),42.5012757,-83.2813454,0,6656,standard
12664,Dodge Park / Anna Lisa (SB),42.5684979,-83.010453,0,12664,standard
2520,Fenkell / Schaefer (EB),42.4020021,-83.1788743,0,2520,standard
12439,Six Mile / Brookview (WB),42.412653,-83.338455,0,12439,standard
10657,Goddard / Hertz (WB),42.2382405,-83.3337021,0,10657,standard
6552,Flora / Thirteen Mile (SB),42.5246927,-82.906673,0,6552,standard
9655,Macomb CC Center Building C (WB),42.6208034,-82.9563518,0,9655,standard
13651,Eleven Mile / Southfield (WB),42.4880844,-83.2222349,0,13651,standard
2683,Eleven Mile / Arlington (WB),42.4872576,-83.2550168,0,2683,standard
1604,Van Dyke / Value City (SB),42.5395166,-83.0293036,0,1604,standard
8353,Telegraph / George (NB),42.3319319,-83.2725477,0,8353,standard
8756,Evergreen / Elmira (NB),42.3696183,-83.2360697,0,8756,standard
325,Michigan / Canton Center (EB),42.2716883,-83.4870064,0,325,standard
394,Michigan / Miller (EB),42.3249361,-83.1660104,0,394,standard
8909,Greenfield / Oak Park (NB),42.4667708,-83.2012439,0,8909,standard
8441,Telegraph / Humphrey (SB),42.6157899,-83.3137411,0,8441,standard
9896,Sheldon Center / Sheldon (SB),42.3448984,-83.480612,0,9896,standard
13596,Hayes / Kingsway (NB),42.6640165,-82.9746294,0,13596,standard
1671,Van Dyke / Lafayette (SB),42.3530734,-82.9962802,0,1671,standard
5413,Seven Mile / Yonka (WB),42.4331338,-83.0663395,0,5413,standard
10386,Northline / Clippert (EB),42.2125312,-83.244009,0,10386,standard
13692,Davison / Fourteenth (EB),42.3953072,-83.1155124,0,13692,standard
877,Woodward / Aldgate (NB),42.5985557,-83.2590508,0,877,standard
7226,Maple / Thorncroft (EB),42.5476899,-83.171348,0,7226,standard
8351,Telegraph / Ford (NB),42.3272364,-83.2722902,0,8351,standard
11055,Walton / Bellarmine (WB),42.6805267,-83.2028103,0,11055,standard
1887,Fort / Oakwood NS (NB),42.290723,-83.1433403,0,1887,standard
3068,Southfield / Edwards (SB),42.5049774,-83.2228947,0,3068,standard
4120,Warren / Burnly (EB),42.3397676,-83.3368349,0,4120,standard
9045,Dix / Montie (NB),42.2666865,-83.1833482,0,9045,standard
7655,Twenty-Three Mile / Quadrate (WB),42.6714242,-82.963407,0,7655,standard
3462,St Aubin / Warren (SB),42.3642479,-83.0443722,0,3462,standard
2909,Grand Blvd / La Salle (WB),42.3613821,-83.0973727,0,2909,standard
12754,Commerce / Orchard Place (EB),42.5963661,-83.3819684,0,12754,standard
8491,Telegraph / Grand River (SB),42.4240584,-83.2779551,0,8491,standard
1306,Gratiot / Eastridge (SB),42.6486434,-82.8514704,0,1306,standard
6612,Twelve Mile / Townley (WB),42.50493,-83.1036973,0,6612,standard
5264,Seven Mile / Pennington (EB),42.4313877,-83.148002,0,5264,standard
13112,Vernor / Grand Blvd (EB),42.3229014,-83.0888432,0,13112,standard
7951,Wayne / Bibbins (NB),42.2206678,-83.385179,0,7951,standard
12188,Pointe Tremble / Anchor Bay (SB),42.6538147,-82.6189256,0,12188,standard
4156,Warren / Grandmont (EB),42.3434313,-83.208282,0,4156,standard
5065,Seven Mile / Gruebner (EB),42.4341473,-83.011483,0,5065,standard
6970,Fourteen Mile / Groveland (EB),42.5322118,-83.1914163,0,6970,standard
12989,I-96 Service Drive / Sorrento (EB),42.3839956,-83.1716859,0,12989,standard
6292,Eleven Mile / I-75 (WB),42.4906675,-83.117103,0,6292,standard
9417,Rochester / Eastlawn (NB),42.6249125,-83.1307983,0,9417,standard
11674,Squirrel / Cross Creek (SB),42.6657285,-83.2200193,0,11674,standard
13059,Vernor / Hubbard (WB),42.3218107,-83.0921102,0,13059,standard
6336,Ten Mile / Lois (WB),42.4726034,-83.2578921,0,6336,standard
66,Woodward / Grand Blvd (SB),42.3699552,-83.0733079,0,66,standard
937,Baldwin / Princeton (SB),42.6742324,-83.3007216,0,937,standard
10059,Beck / Technology (SB),42.39852,-83.5107064,0,10059,standard
2937,Dexter / Lodge NS (NB),42.4044105,-83.1355351,0,2937,standard
5453,Seven Mile / Schaefer (WB),42.4311858,-83.1806982,0,5453,standard
13083,Dix / Powell (SB),42.2953617,-83.152535,0,13083,standard
8570,Outer Drive / Park (NB),42.299405,-83.2631707,0,8570,standard
734,Grand River / Linwood (EB),42.3498859,-83.0925608,0,734,standard
4025,Jefferson / Lakeland (SB),42.4832858,-82.8893781,0,4025,standard
1082,Jefferson / Beaubien (WB),42.3308889,-83.0400914,0,1082,downtown
7891,Ford / Rouge (WB),42.327395,-83.2532358,0,7891,standard
9281,Dix / Southfield (SB),42.2547919,-83.1936264,0,9281,standard
3955,Jefferson / Lanse (NB),42.5045187,-82.8822005,0,3955,standard
10147,Orchard Lake / Bristol (NB),42.50754,-83.3589149,0,10147,standard
9590,Hayes / Regency Club (NB),42.4894412,-82.9673767,0,9590,standard
7928,Ford / Wayne (WB),42.3245553,-83.3895457,0,7928,standard
7900,Ford / Lafayette (WB),42.3269984,-83.278749,0,7900,standard
10118,Highland / Airport (WB),42.6599849,-83.4062397,0,10118,standard
2521,Fenkell / Littlefield (EB),42.4020417,-83.1757253,0,2521,standard
7788,Ford / Lafayette (EB),42.3267605,-83.2783413,0,7788,standard
9097,Schaefer / Bryan (NB),42.3188518,-83.1756932,0,9097,standard
689,Grand River / Blackstone (EB),42.4132075,-83.2497865,0,689,standard
273,Michigan / Haigh (WB),42.3036423,-83.255682,0,273,standard
2245,Joy / Terry (EB),42.358203,-83.1904292,0,2245,standard
12576,Conner / Canfield (NB),42.3872526,-82.9707134,0,12576,standard
9668,Hayes / Eighteen Mile (SB),42.5974027,-82.9722047,0,9668,standard
13401,Grosse Ile Pkwy / Elizabeth Park (WB),42.1276545,-83.1801725,0,13401,standard
2562,Fourteenth / Grand Blvd (SB),42.362048,-83.0944759,0,2562,standard
7351,Fifteen Mile / Griswald (WB),42.5544555,-82.9174447,0,7351,standard
12160,Van Dyke / Dryden (SB),42.9485228,-83.056705,0,12160,standard
11793,Plymouth / Ford (EB),42.3249202,-83.6247969,0,11793,standard
9649,Utica / Fifteen Mile (NB),42.5536177,-82.9610896,0,9649,standard
10900,Dequindre / Capitol (NB),42.4646893,-83.0839562,0,10900,standard
11392,Kelly / Ten Mile (NB),42.4805323,-82.9271114,0,11392,standard
2033,Fort / Cass (EB),42.329259,-83.0504608,0,2033,downtown
6847,Thirteen Mile / Chicago (WB),42.5245108,-83.0433583,0,6847,standard
12030,Dixie / Telegraph (SB),42.6660677,-83.3297431,0,12030,standard
12735,Haggerty / Goldie (NB),42.5753323,-83.439939,0,12735,standard
10083,Ford / Gorman (EB),42.3214299,-83.4949136,0,10083,standard
4595,Harper / Coplin (WB),42.4030082,-82.9705793,0,4595,standard
13334,Ann Arbor / Haggerty (EB),42.3592257,-83.4446061,0,13334,standard
367,Michigan / Beech Daly (EB),42.2967068,-83.2902288,0,367,standard
13326,Ann Arbor Trail / Hamilton (EB),42.3689763,-83.4647441,0,13326,standard
711,Grand River / Sorrento (EB),42.3818321,-83.1717396,0,711,standard
391,Michigan / Maple (EB),42.3213348,-83.1783056,0,391,standard
728,Grand River / Montgomery (EB),42.3597331,-83.1169152,0,728,standard
3095,Southfield / Trojan (SB),42.4407272,-83.2201105,0,3095,standard
3861,Kercheval / Bishop (WB),42.3881876,-82.9218435,0,3861,standard
3101,Southfield / Curtis (SB),42.4226487,-83.2195097,0,3101,standard
4756,Levan / Schoolcraft NS (NB),42.3811941,-83.4019509,0,4756,standard
5116,McNichols / Carrie (WB),42.4194569,-83.0301833,0,5116,standard
4139,Warren / Park Forest (EB),42.3414488,-83.2700157,0,4139,standard
7950,Wayne / Metro Airport Center (NB),42.2175373,-83.3834624,0,7950,standard
4142,Warren / Chatham (EB),42.3416392,-83.2596087,0,4142,standard
11228,Masonic / Eveningside (EB),42.5316109,-82.9385376,0,11228,standard
3325,Dequindre / Heritage Pointe (NB),42.596297,-83.0899215,0,3325,standard
5282,Seven Mile / Chrysler (EB),42.432429,-83.0940735,0,5282,standard
1590,Van Dyke / Independence (SB),42.587972,-83.0308485,0,1590,standard
4587,Harper / Balfour (WB),42.4081219,-82.9523402,0,4587,standard
9793,Canton Center / Warren (NB),42.3368492,-83.4884977,0,9793,standard
12517,Seven Mile / Canterbury (WB),42.4266719,-83.3573592,0,12517,standard
4731,Plymouth / Garden (WB),42.3693806,-83.3288634,0,4731,standard
9158,Coolidge / Merrill (NB),42.5133451,-83.1862342,0,9158,standard
8415,Bloomfield Town Square S (NB),42.6070214,-83.2934046,0,8415,standard
11470,Metro Parkway / Lanse Creuse (WB),42.5739576,-82.8454757,0,11470,standard
10221,Orchard Lake / Will-O-Way (SB),42.563749,-83.3618331,0,10221,standard
7903,Ford / Kinmore (WB),42.3267962,-83.2887268,0,7903,standard
7118,Delemere / Fourteen Mile (NB),42.5335084,-83.1769109,0,7118,standard
3748,Harper / Meadowbridge (NB),42.5643021,-82.8706884,0,3748,standard
8677,Outer Dr / Shaftsbury (WB),42.4188945,-83.2306623,0,8677,standard
12294,Thirty-Three Mile / Romeo Plank NS (EB),42.8198168,-82.9635304,0,12294,standard
11266,Mack / Montclair (EB),42.3766964,-82.9837275,0,11266,standard
8700,Outer Dr / Schoolcraft (SB),42.3849228,-83.256551,0,8700,standard
12794,Cass Lake / Sloan (SB),42.629862,-83.3551598,0,12794,standard
11045,Walton / Great Oaks (WB),42.6818833,-83.1486511,0,11045,standard
3352,Dequindre / Briarwood (SB),42.608806,-83.09093,0,3352,standard
2897,Third / Merrick (NB),42.3568235,-83.0722404,0,2897,standard
9699,Hayes / Jacobs (SB),42.5139778,-82.9688358,0,9699,standard
4491,Caniff / Dequindre NS (EB),42.3963293,-83.0690324,0,4491,standard
7200,Coolidge / Thirteen Mile NS (SB),42.5182323,-83.1839678,0,7200,standard
1279,Gratiot / Capital (NB),42.6229073,-82.8642297,0,1279,standard
1792,Jefferson / Sibley (SB),42.1705444,-83.170023,0,1792,standard
4331,Warren / Dolphin (WB),42.3418929,-83.2562828,0,4331,standard
6149,Ten Mile / Rosalind (EB),42.4798993,-82.9337525,0,6149,standard
11008,Perry / Madison (NB),42.6635669,-83.2674784,0,11008,standard
11074,Perry / Montcalm (SB),42.6558032,-83.2777405,0,11074,standard
4274,Warren / Beaufait (WB),42.3714494,-83.0252481,0,4274,standard
4890,Conant / Miller (NB),42.3906362,-83.0445653,0,4890,standard
2154,Joy / Shari (WB),42.3542944,-83.3546877,0,2154,standard
7968,Wayne / Woodside Square (NB),42.2627484,-83.3891487,0,7968,standard
9167,Coolidge / Northfield (SB),42.4687731,-83.1825167,0,9167,standard
7240,Chicago / Maple (SB),42.5488597,-83.1139112,0,7240,standard
7129,Fourteen Mile / Grant (WB),42.5318639,-83.2094836,0,7129,standard
2849,Hamilton / Glendale (SB),42.3961589,-83.1020451,0,2849,standard
8956,Greenfield / Cambridge (SB),42.4907704,-83.2026601,0,8956,standard
12109,Main / Pratt (NB),42.8906808,-82.7685285,0,12109,standard
12346,Riverside / Ouellette (EB),42.3195657,-83.0400431,0,12346,standard
8808,Evergreen / Noel (SB),42.4614126,-83.2401681,0,8808,standard
8024,Haggerty / Sheraton (NB),42.4416853,-83.4348106,0,8024,standard
3005,Southfield / Edwards (NB),42.5053096,-83.2225299,0,3005,standard
11802,Ann Arbor Trail / McClumpha (WB),42.3667568,-83.4994841,0,11802,standard
10747,Beech Daly / Richardson (NB),42.3374836,-83.2924819,0,10747,standard
4110,Warren / Wildwood (EB),42.3389428,-83.3808231,0,4110,standard
4812,Schoolcraft / Farley (EB),42.384479,-83.2914948,0,4812,standard
9498,Livernois / Chalfonte (SB),42.4002947,-83.1403685,0,9498,standard
13040,Whittier / King Richard (EB),42.4135283,-82.9450017,0,13040,standard
6318,Ten Mile / Rue Versailles (WB),42.4740278,-83.1985617,0,6318,standard
13354,Ann Arbor Trail / Donna (EB),42.34696,-83.3406973,0,13354,standard
6596,Twelve Mile / GM Tech Center (WB),42.5061638,-83.0407619,0,6596,standard
3013,Southfield / Kinross (NB),42.5269461,-83.2235599,0,3013,standard
9929,Belleville / Westlake (SB),42.2267616,-83.4852362,0,9929,standard
7780,Ford / Amboy (EB),42.3261735,-83.3063436,0,7780,standard
119,Telegraph / Goddard (SB),42.2261022,-83.2695114,0,119,standard
11867,Pontiac Trail / Dixboro (EB),42.3626663,-83.6624551,0,11867,standard
5356,Mack / Marseilles (SB),42.402822,-82.9173803,0,5356,standard
1294,Gratiot / Cotton (NB),42.6698307,-82.8367853,0,1294,standard
11188,Shoreline / Pine (EB),42.6208705,-82.9776549,0,11188,standard
7173,Fourteen Mile / Heather Heath (WB),42.5282507,-83.3544302,0,7173,standard
2027,Oakwood / Schaefer (EB),42.2852386,-83.1631029,0,2027,standard
11287,Little Mack / Madison (NB),42.4850423,-82.9071879,0,11287,standard
11063,Walton / Phillips (WB),42.6786495,-83.2404685,0,11063,standard
4456,Plymouth / Griggs (EB),42.3733537,-83.1617537,0,4456,standard
3371,John R / Roundtree (SB),42.5600191,-83.1082678,0,3371,standard
12520,Seven Mile / Mayfield (WB),42.4264264,-83.3690429,0,12520,standard
10846,Inkster / Ann Arbor (SB),42.3507978,-83.3127541,0,10846,standard
1212,Gratiot / Eight Mile (NB),42.4504889,-82.9670119,0,1212,standard
96,Washtenaw / Stadium NS (EB),42.2597708,-83.7121296,0,96,standard
6507,Twelve Mile / Longview (EB),42.5065751,-83.0216861,0,6507,standard
8596,Outer Dr / Orangelawn (NB),42.3669153,-83.2605314,0,8596,standard
1203,Gratiot / Park Grove (NB),42.4299029,-82.980895,0,1203,standard
13443,Grosse Ile Pkwy / Chicory (EB),42.1270577,-83.1677485,0,13443,standard
8211,Middlebelt / Jacquelyn (NB),42.3889484,-83.3339167,0,8211,standard
2774,Northwestern / Baymont Inn & Suites (EB),42.4903471,-83.2810181,0,2774,standard
2289,Fourteenth / Warren (SB),42.3494102,-83.0869174,0,2289,standard
6085,Eleven Mile / Vermont (EB),42.4901849,-83.1280303,0,6085,standard
9831,Sheldon / Fairbrook (NB),42.4276539,-83.4827793,0,9831,standard
11762,Gibraltar / Allen (WB),42.0954361,-83.2301044,0,11762,standard
8125,Wayne / Rosslyn (SB),42.3144012,-83.3889556,0,8125,standard
5174,McNichols / Lindsay (WB),42.415758,-83.2134855,0,5174,standard
760,Woodward / Cadillac Square NS (NB),42.3312459,-83.0461371,0,760,downtown
2587,Cass / Martin Luther King Jr (NB),42.3458103,-83.0606961,0,2587,standard
2365,Fenkell / Wisconsin (WB),42.4026081,-83.1565905,0,2365,standard
7528,Rochester / Yorktowne (NB),42.6617207,-83.1328583,0,7528,standard
2762,Northwestern / Wellington (SB),42.5100709,-83.3256555,0,2762,standard
6936,Franklin / Ramble (NB),42.5169987,-83.3054638,0,6936,standard
13566,Franklin / Eleven Mile (NB),42.4867829,-83.2910228,0,13566,standard
9563,Mt Elliott / Canfield (NB),42.3664873,-83.0247974,0,9563,standard
168,Grand Blvd / Jefferson (NB),42.3474992,-83.0018511,0,168,standard
7243,Maple / John R (EB),42.5491285,-83.1072807,0,7243,standard
741,Grand River / Pine (EB),42.3378009,-83.0626488,0,741,standard
7564,Twenty-Three Mile / Quadrate (EB),42.6712191,-82.962935,0,7564,standard
11949,White Lake Walmart (WB),42.6591091,-83.468467,0,11949,standard
10255,Opdyke / Centerpoint (NB),42.62016,-83.2484508,0,10255,standard
67,Woodward / Warren NS (SB),42.3572279,-83.0647248,0,67,standard
8721,Outer Dr / Burger (SB),42.3334944,-83.2614648,0,8721,standard
13642,Franklin / American (SB),42.4919808,-83.2980233,0,13642,standard
10074,Beck / Stratford (SB),42.3398628,-83.5082603,0,10074,standard
6414,Twelve Mile / Energy Way (EB),42.4965216,-83.4418917,0,6414,standard
8186,Middlebelt / Emerson (NB),42.3065941,-83.3300757,0,8186,standard
12121,Gratiot / Twenty-Eight Mile (SB),42.7495491,-82.7727342,0,12121,standard
5022,McNichols / Greenlawn (EB),42.4170015,-83.1509793,0,5022,standard
10483,Outer Drive / Larme (EB),42.2776898,-83.2127881,0,10483,standard
9023,Trenton / Mercier (NB),42.2018186,-83.1931114,0,9023,standard
11271,Mack / Dickerson (EB),42.3845582,-82.9616046,0,11271,standard
8604,Outer Dr / Schoolcraft NS (NB),42.3848673,-83.2560575,0,8604,standard
5622,Eight Mile / Brock (EB),42.4498675,-82.9634607,0,5622,standard
5952,Nine Mile / Twining (WB),42.4585473,-83.2342243,0,5952,standard
12081,Lapeer / Brauer (NB),42.8981006,-83.311429,0,12081,standard
3008,Southfield / Corner Place (NB),42.5138354,-83.2229376,0,3008,standard
6983,Fourteen Mile / Briarwood (EB),42.5326704,-83.1741214,0,6983,standard
8084,Haggerty / AMC Livonia (SB),42.4281449,-83.4333944,0,8084,standard
12670,Dodge Park / Broad (SB),42.5539181,-83.0098736,0,12670,standard
5178,McNichols / Avon (WB),42.4155283,-83.2257807,0,5178,standard
11905,Pontiac Trail / Commerce (WB),42.5420461,-83.4780639,0,11905,standard
11159,Garfield / Forestview (NB),42.5707656,-82.9508758,0,11159,standard
2540,Oakman / Rosa Parks (WB),42.4013881,-83.1169367,0,2540,standard
1140,Maple / Edenborough (WB),42.547358,-83.1929827,0,1140,standard
9955,Beck / Timberwood (NB),42.3530734,-83.5083032,0,9955,standard
6998,Fourteen Mile / Concord (EB),42.5338879,-83.1128597,0,6998,standard
246,Michigan / Addison (WB),42.3295723,-83.1508827,0,246,standard
10780,Beech Daly / Orangelawn (SB),42.3659007,-83.2948422,0,10780,standard
1702,Van Dyke / Rhode (SB),42.6485436,-83.0332732,0,1702,standard
1533,Van Dyke / Penna's (NB),42.576154,-83.0297971,0,1533,standard
13386,Military / Cherry Hill (SB),42.311553,-83.2536435,0,13386,standard
7481,Auburn / Woodward (EB),42.6341541,-83.2881582,0,7481,standard
6702,Thirteen Mile / Westgate (EB),42.5140094,-83.3467484,0,6702,standard
1710,Rosa Parks Nexus #8,42.332499,-83.0523786,0,1710,downtown
10249,Crooks / Investment (NB),42.5883353,-83.1682634,0,10249,standard
638,Grand River / Steeley NS (EB),42.4740753,-83.4460974,0,638,standard
12308,Armada Ridge / Welding (EB),42.8165666,-82.7944064,0,12308,standard
7187,Hoover / Thirteen Mile (NB),42.5216801,-83.0075026,0,7187,standard
370,Michigan / Dunkin Donuts (EB),42.2988892,-83.2745647,0,370,standard
7998,Newburgh / Ann Arbor (NB),42.3649019,-83.4110141,0,7998,standard
12461,Six Mile / Laurel Park (WB),42.4109737,-83.418138,0,12461,standard
8191,Middlebelt / Marquette (NB),42.3186058,-83.3305478,0,8191,standard
5007,McNichols / Whitcomb (EB),42.4160115,-83.1966841,0,5007,standard
7573,Twenty-Three Mile / Koss (EB),42.6722919,-82.9233241,0,7573,standard
8073,Haggerty / Village Wood (SB),42.4592122,-83.4346604,0,8073,standard
815,Woodward / Gateway (NB),42.4448878,-83.1234384,0,815,standard
4887,Mt Elliott / Harper (NB),42.3798666,-83.0344105,0,4887,standard
7266,Fifteen Mile / Terrybrook (EB),42.5513573,-83.019948,0,7266,standard
1128,Big Beaver / McClure (WB),42.5618683,-83.1735849,0,1128,standard
6437,Twelve Mile / Balmoral (EB),42.4997886,-83.3285093,0,6437,standard
3001,Southfield / Goldengate (NB),42.4946468,-83.2219935,0,3001,standard
3498,Schoenherr / Liberal (NB),42.4396583,-82.9851651,0,3498,standard
11463,Metro Park Main Stop,42.5738075,-82.7959621,0,11463,standard
11127,Mound / Eight Mile (SB),42.4475479,-83.0443776,0,11127,standard
10262,Chrysler / I-75 NS (NB),42.6545525,-83.2356378,0,10262,standard
13453,Providence / Roanoke (NB),42.4574886,-83.2066083,0,13453,standard
6152,Ten Mile / Raven (EB),42.4802633,-82.9237103,0,6152,standard
2578,Lafayette / Rosa Parks (EB),42.3233496,-83.0669457,0,2578,standard
8026,Haggerty / High Pointe (NB),42.4491748,-83.4339309,0,8026,standard
13142,Haggerty / Neapco (NB),42.2551016,-83.4457862,0,13142,standard
11846,Ten Mile / Beck (EB),42.4654273,-83.5134825,0,11846,standard
468,Newburgh / Ravencrest S (SB),42.3116879,-83.4083319,0,468,standard
6262,Ten Mile / Sherwood (WB),42.4772881,-83.0371571,0,6262,standard
6511,Twelve Mile / Desmond (EB),42.5069231,-83.0091548,0,6511,standard
10878,Oakland / Dakota (NB),42.4204786,-83.0943203,0,10878,standard
2182,Central City / Westland Mall (EB),42.3426701,-83.3902431,0,2182,standard
11590,Pontiac Lake / Oakland County Farmer's Market (WB),42.6527574,-83.3332944,0,11590,standard
11380,Kelly / Ego (NB),42.4525867,-82.9383981,0,11380,standard
3617,Schoenherr / Eight Mile (SB),42.4491589,-82.9858303,0,3617,standard
7852,McGraw / Roosevelt (WB),42.3503458,-83.1065941,0,7852,standard
10121,Highland / Crescent Lake (EB),42.6599691,-83.3860588,0,10121,standard
10144,Orchard Lake / Twelve Mile (NB),42.4994405,-83.3584428,0,10144,standard
6598,Twelve Mile / Grobbel (WB),42.5061322,-83.0524349,0,6598,standard
11337,Mack / Iroquois (WB),42.3685958,-83.0024171,0,11337,standard
12761,Cass Lake / Orchard Lake (NB),42.606137,-83.3437228,0,12761,standard
75,Gratiot / Seven Mile (NB),42.4352094,-82.9773747,0,75,standard
3265,John R / Hayes (NB),42.4494598,-83.1029034,0,3265,standard
2735,Maple / Jewish Community Center (EB),42.5416035,-83.4040403,0,2735,standard
1379,Gratiot / Hayes (SB),42.4527213,-82.9662609,0,1379,standard
9352,Livernois / Chalfonte (NB),42.4006909,-83.1399393,0,9352,standard
8995,Greenfield / Elmira (SB),42.3700702,-83.197639,0,8995,standard
7045,Fourteen Mile / Barris (EB),42.5394691,-82.9163718,0,7045,standard
692,Grand River / Heyden (EB),42.4093102,-83.2399964,0,692,standard
12478,Six Mile / Pollyanna (EB),42.4114529,-83.3777225,0,12478,standard
6905,Thirteen Mile / Sunset (WB),42.5155753,-83.2891774,0,6905,standard
5188,Nine Mile / Tuck (WB),42.455856,-83.3468771,0,5188,standard
5321,Outer Dr / Park (EB),42.4110133,-82.9816997,0,5321,standard
247,Michigan / Weir (WB),42.3287276,-83.1537366,0,247,standard
2634,Lodge / Quincy (WB),42.4053492,-83.1381583,0,2634,standard
11161,Garfield / Clinton River (NB),42.5792351,-82.9519272,0,11161,standard
7730,Auburn / Clifford (WB),42.6349533,-83.2652307,0,7730,standard
3,Michigan / Livernois (WB),42.3312498,-83.1206918,0,3,standard
5845,Nine Mile / Lambrecht (EB),42.4649584,-82.9413915,0,5845,standard
12272,Gratiot / Range (EB),42.909826,-82.4993634,0,12272,standard
713,Grand River / Pinehurst (EB),42.3792167,-83.1653023,0,713,standard
1656,Van Dyke / Nett (SB),42.3979971,-83.0230379,0,1656,standard
3163,Dexter / Columbus (SB),42.3609302,-83.1115186,0,3163,standard
8272,Inkster / Windsor (SB),42.3360402,-83.3121157,0,8272,standard
4293,Warren / W Grand Blvd (WB),42.3449063,-83.1085038,0,4293,standard
7914,Ford / Middlebelt (WB),42.3257134,-83.3313632,0,7914,standard
8537,Telegraph / Powers (SB),42.2726567,-83.2707936,0,8537,standard
316,Michigan / Haggerty (WB),42.2792139,-83.4472346,0,316,standard
6340,Ten Mile / Mulberry (WB),42.4723027,-83.2709169,0,6340,standard
2676,Central Park / Civic Center (NB),42.4802949,-83.2436872,0,2676,standard
5927,Nine Mile / Martin (WB),42.4612068,-83.1133533,0,5927,standard
584,Grand River / Power (WB),42.4608427,-83.366704,0,584,standard
12958,McNichols / Algonac (WB),42.4198569,-83.0106086,0,12958,standard
230,Michigan / Clark (WB),42.3313767,-83.1024528,0,230,standard
414,Michigan / Hubbard (EB),42.3311388,-83.098011,0,414,standard
10882,Nevada / Hull (EB),42.4249613,-83.0884624,0,10882,standard
8027,Haggerty / Reliable Software Resources (NB),42.4513993,-83.4340489,0,8027,standard
4116,Warren / Cowan (EB),42.3394504,-83.3553529,0,4116,standard
3547,Schoenherr / Camelot (NB),42.570418,-82.9891348,0,3547,standard
8704,Outer Dr / N Rouge Park (SB),42.3760069,-83.261143,0,8704,standard
12280,Gratiot / Bartlett (WB),42.8925987,-82.539264,0,12280,standard
4884,Grand Blvd / Chrysler Plant (EB),42.3755749,-83.0444044,0,4884,standard
4664,Davison / Oakman (WB),42.3864997,-83.1443864,0,4664,standard
8937,S Meijer / Coolidge NS (WB),42.5377497,-83.1843621,0,8937,standard
9956,Beck / Stonecrest (NB),42.3554837,-83.5084748,0,9956,standard
1853,Fort / Eureka (NB),42.1997998,-83.1799579,0,1853,standard
8370,Telegraph / Dehner (NB),42.4116391,-83.276732,0,8370,standard
2706,Northwestern / Stonewood (NB),42.515765,-83.3341527,0,2706,standard
7180,Chicago / Fourteen Mile (SB),42.5371924,-83.0040264,0,7180,standard
9503,Livernois / Grand (SB),42.3884095,-83.139832,0,9503,standard
7873,Ford / Oakman (WB),42.3298221,-83.1693578,0,7873,standard
7424,Maple / Adams (WB),42.5470102,-83.2060075,0,7424,standard
12295,Romeo Plank / Thirty-Four Mile (NB),42.8348615,-82.9637075,0,12295,standard
9356,Livernois / Puritan (NB),42.4100865,-83.1403041,0,9356,standard
360,Michigan / Thompson Tower (EB),42.2925642,-83.3158708,0,360,standard
13420,Clark / Jefferson (NB),42.3079588,-83.0868638,0,13420,standard
2872,Cass / Warren (SB),42.3557135,-83.0666238,0,2872,standard
3823,Harper / Alger (SB),42.4584998,-82.9113293,0,3823,standard
1274,Gratiot / Scott (NB),42.6084112,-82.8718472,0,1274,standard
2339,Rosa Parks / Edison (NB),42.3782974,-83.1006503,0,2339,standard
8508,Telegraph / Glendale St (SB),42.3806591,-83.2760024,0,8508,standard
8267,Middlebelt / MacKenzie (SB),42.3522012,-83.3323503,0,8267,standard
5855,Nine Mile / Harper (EB),42.4660822,-82.9074883,0,5855,standard
8652,Franklin / Twelve Mile (SB),42.5004174,-83.3048683,0,8652,standard
13536,Northwestern / E Franklin (NB),42.4993258,-83.3050051,0,13536,standard
202,Twelve Mile / Hoover NS (WB),42.5072553,-83.0055285,0,202,standard
2954,Curtis / Griggs (WB),42.424201,-83.1641328,0,2954,standard
11595,Summit / Summit Place South (SB),42.6430036,-83.3331227,0,11595,standard
10162,Orchard Lake / Foxpointe (NB),42.5715873,-83.3619189,0,10162,standard
9425,Olde Towne / Rochester Hills Public Library (WB),42.6835869,-83.1309271,0,9425,standard
8252,Middlebelt / Puritan (SB),42.4051908,-83.335011,0,8252,standard
6000,Eight Mile / Sarah (EB),42.4400701,-83.3887196,0,6000,standard
13611,Hayes / Lakeside Park (SB),42.6361096,-82.973814,0,13611,standard
12196,River / Greenwood (NB),42.6353005,-82.5153065,0,12196,standard
6949,Fourteen Mile / White Oaks (EB),42.5304408,-83.2690716,0,6949,standard
11025,Walton / Festival (EB),42.6801639,-83.1994414,0,11025,standard
5258,Seven Mile / Pinehurst (EB),42.4311897,-83.1673622,0,5258,standard
4995,McNichols / Edinborough (EB),42.4151719,-83.2337201,0,4995,standard
7802,Valleyview / Evergreen (EB),42.3120945,-83.2258102,0,7802,standard
6116,Ten Mile / Mound (EB),42.4770348,-83.0449677,0,6116,standard
12662,Dodge Park / Sixteen-and-a-Half Mile (SB),42.5733572,-83.0106461,0,12662,standard
8141,Wick / Wayne (WB),42.2377322,-83.3862519,0,8141,standard
402,Michigan / Central (EB),42.3310277,-83.1373644,0,402,standard
12482,Six Mile / Hubbard (EB),42.4117856,-83.3642149,0,12482,standard
4490,Caniff / Grand Haven (EB),42.395842,-83.0703574,0,4490,standard
5001,McNichols / Harlow (EB),42.4155441,-83.2154059,0,5001,standard
2768,Twelve Mile / Franklin Hills (EB),42.5006745,-83.3012152,0,2768,standard
10299,Beech Daly / Grove (SB),42.4114648,-83.2964945,0,10299,standard
7054,Fourteen Mile / Barris (WB),42.5396589,-82.9166722,0,7054,standard
3911,Lakeshore / St Paul School (NB),42.393671,-82.890923,0,3911,standard
5487,Seven Mile / Dalby (WB),42.4285725,-83.291173,0,5487,standard
7749,Ford / Lotz (EB),42.3232703,-83.4335876,0,7749,standard
1542,Van Dyke / Ogden (NB),42.6072741,-83.031342,0,1542,standard
9868,Sheldon / Six Mile (SB),42.4098805,-83.4824574,0,9868,standard
7884,Auto Club / Hubbard NS (SB),42.3226515,-83.2206738,0,7884,standard
10170,Orchard Lake / Summers (NB),42.6012883,-83.3485937,0,10170,standard
2402,Five Mile / Telegraph (WB),42.40016,-83.2771826,0,2402,standard
10709,Grand Blvd / Sylvester (NB),42.366846,-83.0144817,0,10709,standard
12585,Conner / Elmdale (NB),42.4016257,-82.9935444,0,12585,standard
1648,Van Dyke / Davison (SB),42.4234169,-83.0239606,0,1648,standard
6639,Twelve Mile / Lathrup (WB),42.5026678,-83.2194829,0,6639,standard
7502,Auburn / St Clair (EB),42.6340534,-83.2062221,0,7502,standard
5060,McNichols / Helen (EB),42.419243,-83.0298293,0,5060,standard
12199,River / Nautical (NB),42.6713453,-82.5142121,0,12199,standard
6039,Ten Mile / Pembrooke (EB),42.4720969,-83.2709599,0,6039,standard
1143,Maple / Rugby (WB),42.547105,-83.2027459,0,1143,standard
2463,Five Mile / Ingram (EB),42.3973316,-83.3603847,0,2463,standard
7356,Fifteen Mile / Simon (WB),42.5540129,-82.9360914,0,7356,standard
3175,Second / Ford (SB),42.3644143,-83.0741823,0,3175,standard
220,Michigan / Cochrane (WB),42.3315512,-83.0697083,0,220,standard
6153,Ten Mile / Norman (EB),42.4802593,-82.9215324,0,6153,standard
2630,Lodge / Linwood (WB),42.4056661,-83.1276441,0,2630,standard
2405,Five Mile / Lola (WB),42.3999303,-83.2857871,0,2405,standard
9213,Schaefer / Warren (SB),42.3438358,-83.1769753,0,9213,standard
10874,Oakland / Manchester (NB),42.4105776,-83.0890417,0,10874,standard
6980,Royal Oak Meijer,42.5382359,-83.1801617,0,6980,standard
1146,Adams / Haynes (SB),42.5425837,-83.2056856,0,1146,standard
11184,Lakeside / Shoreline (NB),42.6226744,-82.9807931,0,11184,standard
4429,Plymouth / Auburn (EB),42.371814,-83.2335618,0,4429,standard
3292,John R / La Salle (NB),42.5177421,-83.1061864,0,3292,standard
13601,Hayes / Bellacasa Tire & Stone (SB),42.6666042,-82.9750478,0,13601,standard
3423,State Fair / Riopelle (EB),42.4398959,-83.0865526,0,3423,standard
6296,Eleven Mile / Gainsborough (WB),42.4902482,-83.1318498,0,6296,standard
129,Huron / Telegraph (EB),42.6350795,-83.325339,0,129,standard
5068,Seven Mile / Osborn High School (EB),42.4344086,-83.0019879,0,5068,standard
2009,Allen / Meyer (NB),42.260533,-83.2046557,0,2009,standard
4089,Lodge / Warren NS (NB),42.3536423,-83.0732462,0,4089,standard
3782,Harper / Shook (SB),42.5571899,-82.8702593,0,3782,standard
5038,McNichols / Cardoni (EB),42.4179362,-83.0912197,0,5038,standard
8498,Telegraph / Puritan (SB),42.4071079,-83.2772899,0,8498,standard
13590,Hayes / Van Meter (NB),42.6441835,-82.9738355,0,13590,standard
5816,Nine Mile / Mound (EB),42.4624415,-83.0443883,0,5816,standard
7834,McGraw / Warren (EB),42.344827,-83.1171835,0,7834,standard
4073,Jefferson / Berkshire (WB),42.3781389,-82.9305983,0,4073,standard
1703,Van Dyke / Speedway (SB),42.6450239,-83.0332518,0,1703,standard
2570,Fourteenth / Martin Luther King (SB),42.3390063,-83.0809844,0,2570,standard
9778,Canton Center / Hidden Woods (NB),42.2866593,-83.4860301,0,9778,standard
13218,Haggerty / Ford (SB),42.3226833,-83.4491015,0,13218,standard
3222,Hamtramck / Chrysler Plant (NB),42.3850297,-83.0521774,0,3222,standard
602,Grand River / Crestview (WB),42.4701659,-83.4276438,0,602,standard
4309,Warren / Schaefer (WB),42.3441292,-83.177104,0,4309,standard
3256,State Fair / Hanna (WB),42.4399711,-83.0900985,0,3256,standard
13188,Five Mile / Technology (WB),42.3944475,-83.5066509,0,13188,standard
11957,Highland / Timberridge (WB),42.6376842,-83.6403322,0,11957,standard
9395,Rochester / Boyd (NB),42.566246,-83.1274939,0,9395,standard
5894,Nine Mile / Heussner (WB),42.463882,-82.9887915,0,5894,standard
13357,Ann Arbor Trail / Middlebelt (EB),42.3471186,-83.331508,0,13357,standard
4437,Plymouth / Rutland (EB),42.3722083,-83.2130483,0,4437,standard
7042,Fourteen Mile / Haggerty (EB),42.539311,-82.9259849,0,7042,standard
5430,Seven Mile / Havana (WB),42.4322865,-83.1103706,0,5430,standard
5056,McNichols / Mound (EB),42.4189896,-83.0423498,0,5056,standard
4858,Davison / Joseph Campau (EB),42.4128748,-83.0683136,0,4858,standard
4083,Dix / Lincoln Park Community Center (NB),42.2334268,-83.1945276,0,4083,standard
10127,Hubbell / Seven Mile (SB),42.4305839,-83.1900215,0,10127,standard
3542,Schoenherr / Carlisle (NB),42.5575377,-82.9876113,0,3542,standard
3270,John R / Nine Mile (NB),42.46165,-83.103869,0,3270,standard
2766,Twelve Mile / Northwestern (EB),42.5004847,-83.3069444,0,2766,standard
13556,Berg / Southfield Apartments (NB),42.4833966,-83.2794464,0,13556,standard
4486,Oakland / Boston (NB),42.391068,-83.0759203,0,4486,standard
11585,County Center / Hospital (EB),42.6596062,-83.329432,0,11585,standard
2025,Oakwood / Palmer (EB),42.2831431,-83.1719649,0,2025,standard
7542,Twenty-Three Mile / Sandshores (EB),42.6681898,-83.0787206,0,7542,standard
5016,McNichols / Meyers (EB),42.4165659,-83.1699157,0,5016,standard
267,Wildbranch / Hyatt (EB),42.3171382,-83.2174444,0,267,standard
12976,Davison / Woodward (WB),42.4037173,-83.0961496,0,12976,standard
2048,Trumbull / Bagley (NB),42.3296635,-83.0654812,0,2048,standard
2771,Twelve Mile / Telegraph NS (EB),42.500979,-83.2856691,0,2771,standard
3893,Witherell / Columbia (NB),42.3388992,-83.0504715,0,3893,downtown
3997,Jefferson / Shook (SB),42.5538983,-82.8542626,0,3997,standard
10425,Meridian / Grosse Ile Pkwy (SB),42.1266996,-83.1595302,0,10425,standard
7124,Fourteen Mile / Hampton (WB),42.5324648,-83.1884122,0,7124,standard
6473,Coolidge / Oxford (SB),42.4932505,-83.1837344,0,6473,standard
12474,Six Mile / Riverside (EB),42.4111044,-83.3918256,0,12474,standard
9223,Schaefer / Prospect (SB),42.316682,-83.1758648,0,9223,standard
4541,Harper / Philip (EB),42.4051987,-82.9624629,0,4541,standard
9595,Hayes / Macomb CC Lot 8 (NB),42.5044238,-82.9679775,0,9595,standard
1042,Woodward / Ford (SB),42.4056978,-83.0973029,0,1042,standard
4163,Warren / Anthony (EB),42.3437803,-83.1840348,0,4163,standard
7348,Fifteen Mile / Clintondale (WB),42.5546955,-82.9078742,0,7348,standard
11215,Garfield / Faulman (SB),42.5603826,-82.9507685,0,11215,standard
11460,Metro Park Northwest Lot,42.5769519,-82.7996957,0,11460,standard
362,Michigan / Inkster (EB),42.2939452,-83.3097875,0,362,standard
11191,Hayes / Virginia (NB),42.6239336,-82.9628706,0,11191,standard
5096,Seven Mile / Morang (WB),42.4356637,-82.9622054,0,5096,standard
10949,Dequindre / Whitcomb (SB),42.5251118,-83.0866385,0,10949,standard
12661,Dodge Park / Plumbrook (SB),42.5770546,-83.0107749,0,12661,standard
7889,Evergreen / Hubbard NS (NB),42.320716,-83.2308447,0,7889,standard
3122,Curtis / Pinehurst (EB),42.4239951,-83.1669921,0,3122,standard
6991,Fourteen Mile / Main (EB),42.5333819,-83.1459045,0,6991,standard
9672,Hayes / Rivendell (SB),42.5884775,-82.9718828,0,9672,standard
11087,Mound / Seven Mile (NB),42.4337158,-83.0432886,0,11087,standard
4722,Plymouth / Rockalnd (WB),42.3706845,-83.3011132,0,4722,standard
6744,Thirteen Mile / Manitou (EB),42.5185091,-83.1595302,0,6744,standard
966,Woodward / Hickory Grove NS (SB),42.5977186,-83.2590616,0,966,standard
7320,Maple / Tipa (EB),42.5325755,-83.5017478,0,7320,standard
1403,Gratiot / Georgia (SB),42.3955806,-83.0038172,0,1403,standard
4198,Forest / McDougall (EB),42.3653616,-83.0342174,0,4198,standard
11079,Perry / Gladstone (SB),42.6453633,-83.2894134,0,11079,standard
5416,Seven Mile / Conant (WB),42.4330071,-83.0741179,0,5416,standard
10206,Orchard Lake / Maddy (WB),42.6074636,-83.339839,0,10206,standard
4678,Plymouth / Steel (WB),42.3732605,-83.1707633,0,4678,standard
1067,Woodward / Alexandrine (SB),42.3503775,-83.0600792,0,1067,standard
3158,Dexter / Joy (SB),42.3699037,-83.1176126,0,3158,standard
11765,Telegraph / Gibraltar (SB),42.0971716,-83.2932758,0,11765,standard
3509,Schoenherr / Stephens (NB),42.4695803,-82.986238,0,3509,standard
8778,Evergreen / Seven Mile (NB),42.429796,-83.2387305,0,8778,standard
4685,Plymouth / Coyle (WB),42.3727414,-83.1932992,0,4685,standard
13093,Vernor / Riverside (EB),42.3051619,-83.142466,0,13093,standard
7476,Maple / Sibley (WB),42.53169,-83.5350823,0,7476,standard
4544,Harper / Greensboro (EB),42.4071158,-82.9559773,0,4544,standard
8169,Middlebelt / Ecorse (NB),42.2535888,-83.3283162,0,8169,standard
4545,Harper / Nottingham (EB),42.4075278,-82.9542392,0,4545,standard
13199,Five Mile / Dickey's Barbecue (EB),42.3955092,-83.4851396,0,13199,standard
3841,Moross / Rolandale (EB),42.4204311,-82.919805,0,3841,standard
5624,Eight Mile / Boulder (EB),42.450002,-82.9534346,0,5624,standard
11530,Eleven Mile / Barwell (WB),42.4852006,-83.342371,0,11530,standard
6326,Ten Mile / Continental (WB),42.4734264,-83.2246113,0,6326,standard
7672,Twenty-Three Mile / Linda (WB),42.6691207,-83.0593014,0,7672,standard
13185,Five Mile / Patriot Manufacturing (WB),42.3955409,-83.4917164,0,13185,standard
5367,Outer Dr / E Warren (NB),42.4038916,-82.9364455,0,5367,standard
4688,Plymouth / Forrer (WB),42.3726264,-83.2013243,0,4688,standard
11061,Walton / Dexter (WB),42.6788704,-83.2309628,0,11061,standard
9787,Canton Center / Horseshoe (NB),42.3171461,-83.4875321,0,9787,standard
6330,Ten Mile / Red River (WB),42.4731098,-83.2377863,0,6330,standard
11826,Grand River / Blue Cross Blue Shield (WB),42.503443,-83.5770535,0,11826,standard
5899,Nine Mile / Marmon (WB),42.4635812,-83.010807,0,5899,standard
3877,Jefferson / Algonquin NS (WB),42.3704506,-82.9560471,0,3877,standard
135,Maple / Inkster (EB),42.5438168,-83.3210421,0,135,standard
5122,McNichols / Bloom (WB),42.4190213,-83.04883,0,5122,standard
8249,Middlebelt / Six Mile (SB),42.4124153,-83.3353114,0,8249,standard
12426,Six Mile / Beech Daly (WB),42.4141105,-83.2967734,0,12426,standard
11385,Kelly / Holland NS (NB),42.4644835,-82.9271543,0,11385,standard
9832,Central / Cady (NB),42.4302355,-83.4830797,0,9832,standard
12954,McNichols / Bradford (WB),42.4213261,-83.0004376,0,12954,standard
5777,Nine Mile / Church (EB),42.4594971,-83.1914592,0,5777,standard
12018,Dixie / Holly (SB),42.7803463,-83.4991837,0,12018,standard
5909,Nine Mile / Hill (WB),42.4624257,-83.0525208,0,5909,standard
5026,McNichols / Parkside (EB),42.4171916,-83.1313884,0,5026,standard
26,Grand River / Lahser (WB),42.4166768,-83.2578707,0,26,standard
4737,Plymouth / Merriman (WB),42.3688336,-83.3528477,0,4737,standard
11664,Featherstone / Cooley (EB),42.6492281,-83.2344308,0,11664,standard
413,Michigan / Clark (EB),42.3310753,-83.102088,0,413,standard
2111,Joy / Southfield (WB),42.3579731,-83.2170796,0,2111,standard
3772,Harper / Oxford (SB),42.5825214,-82.868607,0,3772,standard
6791,Thirteen Mile / Hayes (EB),42.5235388,-82.9685669,0,6791,standard
12789,Elizabeth Lake / Highland (WB),42.6394679,-83.3527243,0,12789,standard
3067,Southfield / Southfield Plaza (SB),42.5077141,-83.2230449,0,3067,standard
6961,Lincoln / Shirley (EB),42.5383466,-83.2278085,0,6961,standard
3030,Maple / Overhill (WB),42.5456823,-83.2548881,0,3030,standard
6624,Coolidge / Oxford (NB),42.4936184,-83.1834555,0,6624,standard
1068,Woodward / Selden (SB),42.349093,-83.0591512,0,1068,standard
1603,Van Dyke / Crestview (SB),42.5432161,-83.0288959,0,1603,standard
9905,Canton Center / Stonewood (SB),42.3165511,-83.4878218,0,9905,standard
6685,Twelve Mile / Meadowbrook (WB),42.4963397,-83.4569764,0,6685,standard
6133,Ten Mile / Malvina (EB),42.4783642,-82.9841995,0,6133,standard
2997,Southfield / Margate (NB),42.482906,-83.2214141,0,2997,standard
4211,Warren / Cadillac (EB),42.3823234,-82.9966021,0,4211,standard
6811,Thirteen Mile / Sunburst Village (WB),42.5247955,-82.9230452,0,6811,standard
1070,Woodward / Temple (SB),42.34313,-83.055203,0,1070,standard
2212,Joy / Hemingway (EB),42.3557691,-83.3036828,0,2212,standard
7603,Twenty-Three Mile / KFC (EB),42.67581,-82.761898,0,7603,standard
8118,Wayne / Westland Estates (SB),42.3348823,-83.3852649,0,8118,standard
8670,Lahser / Frazer (SB),42.4538374,-83.2600164,0,8670,standard
569,Grand River / Negaunee (WB),42.4391516,-83.3133173,0,569,standard
671,Grand River / Negaunee (EB),42.4384548,-83.3129096,0,671,standard
8242,Middlebelt / Livonia Marketplace (SB),42.4287784,-83.3361804,0,8242,standard
1647,Van Dyke / Iowa (SB),42.4250167,-83.0240571,0,1647,standard
2931,Dexter / Grand (NB),42.3915554,-83.1319141,0,2931,standard
10816,Inkster / Pawnee (NB),42.4096429,-83.3153558,0,10816,standard
4145,Warren / Pierson NS (EB),42.3428921,-83.2426572,0,4145,standard
7938,Ford / Lotz (WB),42.3234924,-83.4341025,0,7938,standard
9909,Canton Center / Glengarry (SB),42.3023331,-83.4870923,0,9909,standard
4296,Warren / Northfield (WB),42.344716,-83.1208634,0,4296,standard
12617,Hoover / Common (NB),42.514476,-83.0071056,0,12617,standard
8758,Evergreen / Wadsworth (NB),42.3742037,-83.2361662,0,8758,standard
5761,Nine Mile / Leewright (EB),42.4571225,-83.2869029,0,5761,standard
4752,Levan / Commerce (NB),42.3722499,-83.4015727,0,4752,standard
2860,Lodge / Seward (SB),42.3716713,-83.0855656,0,2860,standard
3783,Harper / Fifteen Mile (SB),42.5551213,-82.8703639,0,3783,standard
1551,Hall / Sterritt NS (EB),42.6252756,-83.0177593,0,1551,standard
13003,Davison / Hasse (EB),42.4178213,-83.0551386,0,13003,standard
4442,Plymouth / Forrer (EB),42.3724005,-83.2010132,0,4442,standard
7259,Fifteen Mile / Goetz (EB),42.5506578,-83.0432403,0,7259,standard
6024,Ten Mile / Middlebelt (EB),42.4705419,-83.3374518,0,6024,standard
3422,State Fair / Hanna (EB),42.4398325,-83.089782,0,3422,standard
10745,Beech Daly / George (NB),42.3314878,-83.29216,0,10745,standard
976,Woodward / Chesterfield (SB),42.5652662,-83.228302,0,976,standard
7874,Ford / Johnathon (WB),42.329727,-83.1723833,0,7874,standard
5674,Eight Mile / Van Dyke (WB),42.4485889,-83.0252266,0,5674,standard
10370,Northline / Frontage (WB),42.2132782,-83.2240748,0,10370,standard
9409,Rochester / Fairways (NB),42.6052052,-83.129468,0,9409,standard
11126,Mound / Chrysler Lot F (SB),42.4562162,-83.0448711,0,11126,standard
5475,Seven Mile / Burgess (WB),42.4293011,-83.2561326,0,5475,standard
31,Grand River / Haggerty (WB),42.4719386,-83.4354758,0,31,standard
2322,Rosa Parks / Selden (NB),42.3434631,-83.0787098,0,2322,standard
8622,Outer Dr / Grand River (NB),42.4066168,-83.2321912,0,8622,standard
10941,Dequindre / Iowa (SB),42.5473896,-83.0881405,0,10941,standard
6482,Twelve Mile / Dartmouth (EB),42.504487,-83.1109071,0,6482,standard
8827,Evergreen / Grand River NS (SB),42.4089458,-83.2378936,0,8827,standard
8506,Telegraph / Schoolcraft (SB),42.385208,-83.2765522,0,8506,standard
6654,Twelve Mile / Bell (WB),42.501418,-83.2719254,0,6654,standard
12731,Haggerty / Pontiac Trail (NB),42.5609832,-83.4392095,0,12731,standard
7774,Ford / Middlebelt (EB),42.3254874,-83.3305372,0,7774,standard
8741,Monroe / Military (NB),42.2985479,-83.244803,0,8741,standard
3219,St Aubin / Edsel Ford (NB),42.3727572,-83.0497313,0,3219,standard
13039,Whittier / Balfour (EB),42.4148748,-82.9482579,0,13039,standard
10956,Dequindre / 7-Eleven (SB),42.5074847,-83.0858874,0,10956,standard
3099,Southfield / Clarita (SB),42.4276539,-83.2197297,0,3099,standard
2592,Cass / Warren (NB),42.3562765,-83.0666614,0,2592,standard
12516,Seven Mile / Merriman (WB),42.4266877,-83.3557069,0,12516,standard
9586,Hayes / Hauss (NB),42.4772247,-82.966969,0,9586,standard
704,Grand River / Sussex (EB),42.3911512,-83.1949568,0,704,standard
8409,Telegraph / Long Lake (NB),42.5817315,-83.2806695,0,8409,standard
7615,Twenty-Three Mile / Jefferson (WB),42.6762517,-82.7478004,0,7615,standard
5039,McNichols / Chrysler NS (EB),42.4179679,-83.0885696,0,5039,standard
8065,Haggerty / Twelve Mile (SB),42.4964346,-83.4363395,0,8065,standard
8976,Greenfield / Curtis (SB),42.423013,-83.1996989,0,8976,standard
7370,Fifteen Mile / Schoenherr (WB),42.5523216,-82.9900575,0,7370,standard
4753,Levan / Amrhein (NB),42.3750875,-83.4017497,0,4753,standard
620,Grand River / Heyn (WB),42.4884286,-83.509183,0,620,standard
3942,Jefferson / Revere (NB),42.4752148,-82.8891205,0,3942,standard
1980,Ecorse / Dodge NS (EB),42.2531401,-83.3322859,0,1980,standard
3676,Kercheval / Lothrop (NB),42.401705,-82.8975964,0,3676,standard
7144,Fourteen Mile / Orchard (WB),42.5307729,-83.2606816,0,7144,standard
11868,Pontiac Trail / Territorial (NB),42.3655677,-83.6568546,0,11868,standard
4557,Harper / Marseilles (NB),42.4214211,-82.9305178,0,4557,standard
6835,Thirteen Mile / Palomino (WB),42.5217117,-82.9988766,0,6835,standard
7043,Fourteen Mile / Amberidge (EB),42.5393585,-82.9233456,0,7043,standard
10658,Grand Blvd / Fort (NB),42.3155277,-83.0835056,0,10658,standard
10490,Oakwood / Beaumont (WB),42.2920722,-83.2120585,0,10490,standard
7559,Twenty-Three Mile / Mega Precast (EB),42.6710455,-82.980541,0,7559,standard
9035,Dix / Pagel (NB),42.2365248,-83.1946564,0,9035,standard
10434,Eureka / Fifteenth (EB),42.1995296,-83.1704092,0,10434,standard
11521,Eleven Mile / American (WB),42.486055,-83.3040047,0,11521,standard
13051,Eight Mile / Greenfield (WB),42.4450739,-83.2009542,0,13051,standard
746,Bagley / First (EB),42.3331295,-83.0548275,0,746,downtown
5941,Nine Mile / Rensselaer (WB),42.4600828,-83.169744,0,5941,standard
11450,Jefferson / Waterway (NB),42.5608528,-82.8483349,0,11450,standard
4739,Plymouth / Enterprise (WB),42.3686751,-83.3577669,0,4739,standard
2104,Joy / Sussex (WB),42.3582744,-83.1940126,0,2104,standard
4422,Plymouth / Rouge Park (EB),42.3714969,-83.2587987,0,4422,standard
1736,Fort / Dumfries (SB),42.2881991,-83.1453896,0,1736,standard
4098,Northwestern / Lahser (EB),42.4826014,-83.2605207,0,4098,standard
9139,Schaefer / Vassar (NB),42.4349154,-83.1805372,0,9139,standard
9838,Novi / Citation (NB),42.4564892,-83.4740567,0,9838,standard
3028,Maple / Hamilton (WB),42.5458087,-83.2494807,0,3028,standard
11217,Garfield / Bobcean (SB),42.5564787,-82.9505968,0,11217,standard
1446,Jefferson / Adair (EB),42.3416709,-83.0141973,0,1446,standard
7493,Auburn / Corporate (EB),42.6348901,-83.2416058,0,7493,standard
9085,Schaefer / Electric (WB),42.2757092,-83.1535274,0,9085,standard
11822,Grand River / Blue Cross Blue Shield (EB),42.5030633,-83.5765815,0,11822,standard
12907,North River Road Park & Ride,42.5985834,-82.8675717,0,12907,standard
10613,Northline / Howard (EB),42.2136477,-83.1852633,0,10613,standard
11539,Elizabeth Lake / Tucker (WB),42.6406833,-83.320334,0,11539,standard
3337,Russell / Gratiot (NB),42.3439151,-83.0388093,0,3337,downtown
11679,Opdyke / Centre (NB),42.654304,-83.2461762,0,11679,standard
2233,Joy / Grandville (EB),42.3575767,-83.2295465,0,2233,standard
3968,Jefferson / Deziel (NB),42.5348049,-82.8671694,0,3968,standard
3193,Rosa Parks Nexus #6,42.3321183,-83.0523732,0,3193,downtown
1350,Gratiot / Thirteen Mile (SB),42.5244159,-82.9194617,0,1350,standard
1448,Jefferson / Beaufait (EB),42.3446525,-83.0071808,0,1448,standard
7149,Fourteen Mile / Bingham (WB),42.5303459,-83.2818174,0,7149,standard
3654,Jefferson / Chalmers (EB),42.372995,-82.9436874,0,3654,standard
11390,Kelly / Forest (NB),42.4753177,-82.9267895,0,11390,standard
7090,Fourteen Mile / Shrewsbury (WB),42.5358327,-83.0618548,0,7090,standard
697,Grand River / Glastonbury (EB),42.403337,-83.2251048,0,697,standard
1507,Van Dyke / Gerald (NB),42.5034271,-83.0280375,0,1507,standard
11990,Dixie / I-75 Exit 93 Park & Ride (NB),42.7414416,-83.4550667,0,11990,standard
10886,Dequindre / Robinwood (NB),42.4306156,-83.0826688,0,10886,standard
7691,Rochester / Eddington (SB),42.6584069,-83.1330299,0,7691,standard
3835,Harper / Woodland NS (SB),42.4317876,-82.9242306,0,3835,standard
5371,Outer Dr / Haverhill (WB),42.4063553,-82.9463804,0,5371,standard
333,Michigan / Tantara Transportation (EB),42.277539,-83.4522772,0,333,standard
8669,Lahser / Nine Mile (SB),42.457641,-83.2602096,0,8669,standard
6174,Greater Mack / Shady Lane (SB),42.4534179,-82.9037118,0,6174,standard
12511,McNichols / Ridge (EB),42.4145699,-83.2696724,0,12511,standard
7073,Fourteen Mile / Morrison (WB),42.5380778,-82.9857874,0,7073,standard
4323,Warren / Artesian (WB),42.3434631,-83.2258773,0,4323,standard
3424,Outer Dr / Dequindre (EB),42.4399196,-83.0829048,0,3424,standard
9755,I-94 Service Drive / Denton (EB),42.2183636,-83.5202122,0,9755,standard
1136,Doyle / Coolidge (NB),42.5427655,-83.186481,0,1136,standard
4184,Warren / Lorraine (EB),42.3475706,-83.0925742,0,4184,standard
6996,Fourteen Mile / Campbell (EB),42.5336863,-83.1260401,0,6996,standard
3111,Outer Dr / Coyle (EB),42.4195995,-83.1944901,0,3111,standard
10234,Orchard Lake / Barlow (SB),42.5045701,-83.3590543,0,10234,standard
